[
  {
    "id": "walmart_1158",
    "store_id": "1158",
    "name": "Walmart - Adamsville, AL",
    "address": "2473 Hackworth Rd, Adamsville, AL 35214",
    "postal_code": "35214",
    "category": "walmart_store",
    "icon": "walmart_store.png",
    "lat": 33.5786,
    "lng": -86.8939,
    "verified": false,
    "country": "US",
    "stateOrProvince": "AL",
    "city": "Adamsville"
  },
  {
    "id": "walmart_4756",
    "store_id": "4756",
    "name": "Walmart - Alabaster, AL",
    "address": "9085 Hwy 119",
    "postal_code": "35007",
    "category": "walmart_store",
    "icon": "walmart_store.png",
    "lat": 33.2187,
    "lng": -86.7835,
    "verified": false,
    "country": "US",
    "stateOrProvince": "AL",
    "city": "Alabaster"
  },
  {
    "id": "walmart_423",
    "store_id": "423",
    "name": "Walmart - Alabaster, AL",
    "address": "630 Colonial Promenade Pkwy",
    "postal_code": "35007",
    "category": "walmart_store",
    "icon": "walmart_store.png",
    "lat": 33.2187,
    "lng": -86.7835,
    "verified": false,
    "country": "US",
    "stateOrProvince": "AL",
    "city": "Alabaster"
  },
  {
    "id": "walmart_726",
    "store_id": "726",
    "name": "Walmart - Alexander City, AL",
    "address": "2643 Highway 280, Alexander City, AL 35010",
    "postal_code": "35010",
    "category": "walmart_store",
    "icon": "walmart_store.png",
    "lat": 32.9011,
    "lng": -85.9178,
    "verified": false,
    "country": "US",
    "stateOrProvince": "AL",
    "city": "Alexander City"
  },
  {
    "id": "walmart_1091",
    "store_id": "1091",
    "name": "Walmart - Andalusia, AL",
    "address": "1991 M. L. King Jr., Andalusia, AL 36420",
    "postal_code": "36420",
    "category": "walmart_store",
    "icon": "walmart_store.png",
    "lat": 31.2235,
    "lng": -86.6019,
    "verified": false,
    "country": "US",
    "stateOrProvince": "AL",
    "city": "Andalusia"
  },
  {
    "id": "walmart_329",
    "store_id": "329",
    "name": "Walmart - Anniston, AL",
    "address": "5560 Mcclellan Blvd, Anniston, AL 36206",
    "postal_code": "36206",
    "category": "walmart_store",
    "icon": "walmart_store.png",
    "lat": 33.7359,
    "lng": -85.8031,
    "verified": false,
    "country": "US",
    "stateOrProvince": "AL",
    "city": "Anniston"
  },
  {
    "id": "walmart_306",
    "store_id": "306",
    "name": "Walmart - Arab, AL",
    "address": "1450 No. Brindlee Mt, Arab, AL 35016",
    "postal_code": "35016",
    "category": "walmart_store",
    "icon": "walmart_store.png",
    "lat": 34.3218,
    "lng": -86.4969,
    "verified": false,
    "country": "US",
    "stateOrProvince": "AL",
    "city": "Arab"
  },
  {
    "id": "walmart_661",
    "store_id": "661",
    "name": "Walmart - Athens, AL",
    "address": "1011 Us Highway 72 E, Athens, AL 35611",
    "postal_code": "35611",
    "category": "walmart_store",
    "icon": "walmart_store.png",
    "lat": 34.7658,
    "lng": -87.1082,
    "verified": false,
    "country": "US",
    "stateOrProvince": "AL",
    "city": "Athens"
  },
  {
    "id": "walmart_7247",
    "store_id": "7247",
    "name": "Walmart - Atmore, AL",
    "address": "911 N Main St, Atmore, AL 36502",
    "postal_code": "36502",
    "category": "walmart_store",
    "icon": "walmart_store.png",
    "lat": 31.1743,
    "lng": -87.495,
    "verified": false,
    "country": "US",
    "stateOrProvince": "AL",
    "city": "Atmore"
  },
  {
    "id": "walmart_316",
    "store_id": "316",
    "name": "Walmart - Attalla, AL",
    "address": "973 Gilbert Ferry Rd Se, Attalla, AL 35954",
    "postal_code": "35954",
    "category": "walmart_store",
    "icon": "walmart_store.png",
    "lat": 34.0823,
    "lng": -86.0586,
    "verified": false,
    "country": "US",
    "stateOrProvince": "AL",
    "city": "Attalla"
  },
  {
    "id": "walmart_4673",
    "store_id": "4673",
    "name": "Walmart - Auburn, AL",
    "address": "1810 Shug Jordan Parkway",
    "postal_code": "36832",
    "category": "walmart_store",
    "icon": "walmart_store.png",
    "lat": 32.5707,
    "lng": -85.5754,
    "verified": false,
    "country": "US",
    "stateOrProvince": "AL",
    "city": "Auburn"
  },
  {
    "id": "walmart_5062",
    "store_id": "5062",
    "name": "Walmart - Auburn, AL",
    "address": "2047 E University Dr",
    "postal_code": "36830",
    "category": "walmart_store",
    "icon": "walmart_store.png",
    "lat": 32.5578,
    "lng": -85.4799,
    "verified": false,
    "country": "US",
    "stateOrProvince": "AL",
    "city": "Auburn"
  },
  {
    "id": "walmart_356",
    "store_id": "356",
    "name": "Walmart - Auburn, AL",
    "address": "1717 S College St",
    "postal_code": "36832",
    "category": "walmart_store",
    "icon": "walmart_store.png",
    "lat": 32.5707,
    "lng": -85.5754,
    "verified": false,
    "country": "US",
    "stateOrProvince": "AL",
    "city": "Auburn"
  },
  {
    "id": "walmart_2739",
    "store_id": "2739",
    "name": "Walmart - Bay Minette, AL",
    "address": "701 Mcmeans Ave, Bay Minette, AL 36507",
    "postal_code": "36507",
    "category": "walmart_store",
    "icon": "walmart_store.png",
    "lat": 30.8861,
    "lng": -87.7581,
    "verified": false,
    "country": "US",
    "stateOrProvince": "AL",
    "city": "Bay Minette"
  },
  {
    "id": "walmart_764",
    "store_id": "764",
    "name": "Walmart - Bessemer, AL",
    "address": "750 Academy Dr, Bessemer, AL 35022",
    "postal_code": "35022",
    "category": "walmart_store",
    "icon": "walmart_store.png",
    "lat": 33.3337,
    "lng": -86.9604,
    "verified": false,
    "country": "US",
    "stateOrProvince": "AL",
    "city": "Bessemer"
  },
  {
    "id": "walmart_3424",
    "store_id": "3424",
    "name": "Walmart - Birmingham, AL",
    "address": "2653 Valleydale Road",
    "postal_code": "35244",
    "category": "walmart_store",
    "icon": "walmart_store.png",
    "lat": 33.3514,
    "lng": -86.8215,
    "verified": false,
    "country": "US",
    "stateOrProvince": "AL",
    "city": "Birmingham"
  },
  {
    "id": "walmart_4504",
    "store_id": "4504",
    "name": "Walmart - Birmingham, AL",
    "address": "312 Palisades Blvd",
    "postal_code": "35209",
    "category": "walmart_store",
    "icon": "walmart_store.png",
    "lat": 33.4645,
    "lng": -86.8066,
    "verified": false,
    "country": "US",
    "stateOrProvince": "AL",
    "city": "Birmingham"
  },
  {
    "id": "walmart_5100",
    "store_id": "5100",
    "name": "Walmart - Birmingham, AL",
    "address": "1916 Center Point Pkwy",
    "postal_code": "35215",
    "category": "walmart_store",
    "icon": "walmart_store.png",
    "lat": 33.6486,
    "lng": -86.6993,
    "verified": false,
    "country": "US",
    "stateOrProvince": "AL",
    "city": "Birmingham"
  },
  {
    "id": "walmart_762",
    "store_id": "762",
    "name": "Walmart - Birmingham, AL",
    "address": "9248 Parkway E",
    "postal_code": "35206",
    "category": "walmart_store",
    "icon": "walmart_store.png",
    "lat": 33.5652,
    "lng": -86.7113,
    "verified": false,
    "country": "US",
    "stateOrProvince": "AL",
    "city": "Birmingham"
  },
  {
    "id": "walmart_1711",
    "store_id": "1711",
    "name": "Walmart - Birmingham, AL",
    "address": "1600 Montclair Rd",
    "postal_code": "35210",
    "category": "walmart_store",
    "icon": "walmart_store.png",
    "lat": 33.5432,
    "lng": -86.6713,
    "verified": false,
    "country": "US",
    "stateOrProvince": "AL",
    "city": "Birmingham"
  },
  {
    "id": "walmart_2111",
    "store_id": "2111",
    "name": "Walmart - Birmingham, AL",
    "address": "5335 Highway 280",
    "postal_code": "35242",
    "category": "walmart_store",
    "icon": "walmart_store.png",
    "lat": 33.3996,
    "lng": -86.683,
    "verified": false,
    "country": "US",
    "stateOrProvince": "AL",
    "city": "Birmingham"
  },
  {
    "id": "walmart_298",
    "store_id": "298",
    "name": "Walmart - Boaz, AL",
    "address": "1972 Hwy 431, Boaz, AL 35957",
    "postal_code": "35957",
    "category": "walmart_store",
    "icon": "walmart_store.png",
    "lat": 34.1876,
    "lng": -86.1974,
    "verified": false,
    "country": "US",
    "stateOrProvince": "AL",
    "city": "Boaz"
  },
  {
    "id": "walmart_425",
    "store_id": "425",
    "name": "Walmart - Brent, AL",
    "address": "10675 Highway 5, Brent, AL 35034",
    "postal_code": "35034",
    "category": "walmart_store",
    "icon": "walmart_store.png",
    "lat": 32.9234,
    "lng": -87.2762,
    "verified": false,
    "country": "US",
    "stateOrProvince": "AL",
    "city": "Brent"
  },
  {
    "id": "walmart_1620",
    "store_id": "1620",
    "name": "Walmart - Brewton, AL",
    "address": "2578 Douglas Ave, Brewton, AL 36426",
    "postal_code": "36426",
    "category": "walmart_store",
    "icon": "walmart_store.png",
    "lat": 31.1443,
    "lng": -87.0672,
    "verified": false,
    "country": "US",
    "stateOrProvince": "AL",
    "city": "Brewton"
  },
  {
    "id": "walmart_3271",
    "store_id": "3271",
    "name": "Walmart - Calera, AL",
    "address": "5100 Highway 31, Calera, AL 35040",
    "postal_code": "35040",
    "category": "walmart_store",
    "icon": "walmart_store.png",
    "lat": 33.1109,
    "lng": -86.7176,
    "verified": false,
    "country": "US",
    "stateOrProvince": "AL",
    "city": "Calera"
  },
  {
    "id": "walmart_5126",
    "store_id": "5126",
    "name": "Walmart - Centre, AL",
    "address": "1950 W Main St, Centre, AL 35960",
    "postal_code": "35960",
    "category": "walmart_store",
    "icon": "walmart_store.png",
    "lat": 34.1212,
    "lng": -85.5927,
    "verified": false,
    "country": "US",
    "stateOrProvince": "AL",
    "city": "Centre"
  },
  {
    "id": "walmart_4330",
    "store_id": "4330",
    "name": "Walmart - Chelsea, AL",
    "address": "16077 Highway 280, Chelsea, AL 35043",
    "postal_code": "35043",
    "category": "walmart_store",
    "icon": "walmart_store.png",
    "lat": 33.3148,
    "lng": -86.6684,
    "verified": false,
    "country": "US",
    "stateOrProvince": "AL",
    "city": "Chelsea"
  },
  {
    "id": "walmart_424",
    "store_id": "424",
    "name": "Walmart - Clanton, AL",
    "address": "1415 7th St S, Clanton, AL 35045",
    "postal_code": "35045",
    "category": "walmart_store",
    "icon": "walmart_store.png",
    "lat": 32.827,
    "lng": -86.6691,
    "verified": false,
    "country": "US",
    "stateOrProvince": "AL",
    "city": "Clanton"
  },
  {
    "id": "walmart_670",
    "store_id": "670",
    "name": "Walmart - Cullman, AL",
    "address": "626 Olive St Sw",
    "postal_code": "35055",
    "category": "walmart_store",
    "icon": "walmart_store.png",
    "lat": 34.1494,
    "lng": -86.7474,
    "verified": false,
    "country": "US",
    "stateOrProvince": "AL",
    "city": "Cullman"
  },
  {
    "id": "walmart_7280",
    "store_id": "7280",
    "name": "Walmart - Cullman, AL",
    "address": "5601 Highway 157",
    "postal_code": "35058",
    "category": "walmart_store",
    "icon": "walmart_store.png",
    "lat": 34.239,
    "lng": -86.7485,
    "verified": false,
    "country": "US",
    "stateOrProvince": "AL",
    "city": "Cullman"
  },
  {
    "id": "walmart_934",
    "store_id": "934",
    "name": "Walmart - Daphne, AL",
    "address": "27520 Us Highway 98, Daphne, AL 36526",
    "postal_code": "36526",
    "category": "walmart_store",
    "icon": "walmart_store.png",
    "lat": 30.6043,
    "lng": -87.8582,
    "verified": false,
    "country": "US",
    "stateOrProvince": "AL",
    "city": "Daphne"
  },
  {
    "id": "walmart_2488",
    "store_id": "2488",
    "name": "Walmart - Decatur, AL",
    "address": "1203 6th Ave Se",
    "postal_code": "35601",
    "category": "walmart_store",
    "icon": "walmart_store.png",
    "lat": 34.6209,
    "lng": -87.0137,
    "verified": false,
    "country": "US",
    "stateOrProvince": "AL",
    "city": "Decatur"
  },
  {
    "id": "walmart_662",
    "store_id": "662",
    "name": "Walmart - Decatur, AL",
    "address": "2800 Spring Avn. S.w",
    "postal_code": "35603",
    "category": "walmart_store",
    "icon": "walmart_store.png",
    "lat": 34.5388,
    "lng": -86.9696,
    "verified": false,
    "country": "US",
    "stateOrProvince": "AL",
    "city": "Decatur"
  },
  {
    "id": "walmart_731",
    "store_id": "731",
    "name": "Walmart - Demopolis, AL",
    "address": "969 Us Highway 80 W, Demopolis, AL 36732",
    "postal_code": "36732",
    "category": "walmart_store",
    "icon": "walmart_store.png",
    "lat": 32.4154,
    "lng": -87.9188,
    "verified": false,
    "country": "US",
    "stateOrProvince": "AL",
    "city": "Demopolis"
  },
  {
    "id": "walmart_5769",
    "store_id": "5769",
    "name": "Walmart - Dothan, AL",
    "address": "3871 West Main Street",
    "postal_code": "36305",
    "category": "walmart_store",
    "icon": "walmart_store.png",
    "lat": 31.1988,
    "lng": -85.4849,
    "verified": false,
    "country": "US",
    "stateOrProvince": "AL",
    "city": "Dothan"
  },
  {
    "id": "walmart_604",
    "store_id": "604",
    "name": "Walmart - Dothan, AL",
    "address": "4310 Montgomery Hwy",
    "postal_code": "36303",
    "category": "walmart_store",
    "icon": "walmart_store.png",
    "lat": 31.267,
    "lng": -85.4183,
    "verified": false,
    "country": "US",
    "stateOrProvince": "AL",
    "city": "Dothan"
  },
  {
    "id": "walmart_2534",
    "store_id": "2534",
    "name": "Walmart - Dothan, AL",
    "address": "3300 S Oates St",
    "postal_code": "36301",
    "category": "walmart_store",
    "icon": "walmart_store.png",
    "lat": 31.1462,
    "lng": -85.4124,
    "verified": false,
    "country": "US",
    "stateOrProvince": "AL",
    "city": "Dothan"
  },
  {
    "id": "walmart_734",
    "store_id": "734",
    "name": "Walmart - Enterprise, AL",
    "address": "600 Boll Weevil Cir, Enterprise, AL 36330",
    "postal_code": "36330",
    "category": "walmart_store",
    "icon": "walmart_store.png",
    "lat": 31.3684,
    "lng": -85.8693,
    "verified": false,
    "country": "US",
    "stateOrProvince": "AL",
    "city": "Enterprise"
  },
  {
    "id": "walmart_1638",
    "store_id": "1638",
    "name": "Walmart - Eufaula, AL",
    "address": "3176 S Eufaula Ave, Eufaula, AL 36027",
    "postal_code": "36027",
    "category": "walmart_store",
    "icon": "walmart_store.png",
    "lat": 31.9419,
    "lng": -85.2074,
    "verified": false,
    "country": "US",
    "stateOrProvince": "AL",
    "city": "Eufaula"
  },
  {
    "id": "walmart_4333",
    "store_id": "4333",
    "name": "Walmart - Fairhope, AL",
    "address": "10040 County Road 48, Fairhope, AL 36532",
    "postal_code": "36532",
    "category": "walmart_store",
    "icon": "walmart_store.png",
    "lat": 30.4824,
    "lng": -87.867,
    "verified": false,
    "country": "US",
    "stateOrProvince": "AL",
    "city": "Fairhope"
  },
  {
    "id": "walmart_1052",
    "store_id": "1052",
    "name": "Walmart - Fayette, AL",
    "address": "3186 Highway 171 N, Fayette, AL 35555",
    "postal_code": "35555",
    "category": "walmart_store",
    "icon": "walmart_store.png",
    "lat": 33.6436,
    "lng": -87.8275,
    "verified": false,
    "country": "US",
    "stateOrProvince": "AL",
    "city": "Fayette"
  },
  {
    "id": "walmart_4188",
    "store_id": "4188",
    "name": "Walmart - Florence, AL",
    "address": "1410 Florence Blvd",
    "postal_code": "35630",
    "category": "walmart_store",
    "icon": "walmart_store.png",
    "lat": 34.8303,
    "lng": -87.6645,
    "verified": false,
    "country": "US",
    "stateOrProvince": "AL",
    "city": "Florence"
  },
  {
    "id": "walmart_766",
    "store_id": "766",
    "name": "Walmart - Florence, AL",
    "address": "3100 Hough Rd",
    "postal_code": "35630",
    "category": "walmart_store",
    "icon": "walmart_store.png",
    "lat": 34.8303,
    "lng": -87.6645,
    "verified": false,
    "country": "US",
    "stateOrProvince": "AL",
    "city": "Florence"
  },
  {
    "id": "walmart_4187",
    "store_id": "4187",
    "name": "Walmart - Florence, AL",
    "address": "2701 Cloverdale Road",
    "postal_code": "35633",
    "category": "walmart_store",
    "icon": "walmart_store.png",
    "lat": 34.8688,
    "lng": -87.8091,
    "verified": false,
    "country": "US",
    "stateOrProvince": "AL",
    "city": "Florence"
  },
  {
    "id": "walmart_904",
    "store_id": "904",
    "name": "Walmart - Foley, AL",
    "address": "2200 S Mckenzie St, Foley, AL 36535",
    "postal_code": "36535",
    "category": "walmart_store",
    "icon": "walmart_store.png",
    "lat": 30.3838,
    "lng": -87.7157,
    "verified": false,
    "country": "US",
    "stateOrProvince": "AL",
    "city": "Foley"
  },
  {
    "id": "walmart_691",
    "store_id": "691",
    "name": "Walmart - Fort Payne, AL",
    "address": "2001 Glenn Blvd Sw, Fort Payne, AL 35968",
    "postal_code": "35968",
    "category": "walmart_store",
    "icon": "walmart_store.png",
    "lat": 34.4996,
    "lng": -85.7995,
    "verified": false,
    "country": "US",
    "stateOrProvince": "AL",
    "city": "Fort Payne"
  },
  {
    "id": "walmart_301",
    "store_id": "301",
    "name": "Walmart - Gadsden, AL",
    "address": "340 E Meighan Blvd, Gadsden, AL 35903",
    "postal_code": "35903",
    "category": "walmart_store",
    "icon": "walmart_store.png",
    "lat": 34.0359,
    "lng": -85.8659,
    "verified": false,
    "country": "US",
    "stateOrProvince": "AL",
    "city": "Gadsden"
  },
  {
    "id": "walmart_1201",
    "store_id": "1201",
    "name": "Walmart - Gardendale, AL",
    "address": "890 Odum Rd, Gardendale, AL 35071",
    "postal_code": "35071",
    "category": "walmart_store",
    "icon": "walmart_store.png",
    "lat": 33.7069,
    "lng": -86.8638,
    "verified": false,
    "country": "US",
    "stateOrProvince": "AL",
    "city": "Gardendale"
  },
  {
    "id": "walmart_1063",
    "store_id": "1063",
    "name": "Walmart - Geneva, AL",
    "address": "1608 W Magnolia Ave, Geneva, AL 36340",
    "postal_code": "36340",
    "category": "walmart_store",
    "icon": "walmart_store.png",
    "lat": 31.0764,
    "lng": -85.9075,
    "verified": false,
    "country": "US",
    "stateOrProvince": "AL",
    "city": "Geneva"
  },
  {
    "id": "walmart_1462",
    "store_id": "1462",
    "name": "Walmart - Greenville, AL",
    "address": "501 Willow Ln, Greenville, AL 36037",
    "postal_code": "36037",
    "category": "walmart_store",
    "icon": "walmart_store.png",
    "lat": 31.7442,
    "lng": -86.6464,
    "verified": false,
    "country": "US",
    "stateOrProvince": "AL",
    "city": "Greenville"
  },
  {
    "id": "walmart_2748",
    "store_id": "2748",
    "name": "Walmart - Gulf Shores, AL",
    "address": "170 E Fort Morgan Rd, Gulf Shores, AL 36542",
    "postal_code": "36542",
    "category": "walmart_store",
    "icon": "walmart_store.png",
    "lat": 30.2831,
    "lng": -87.7998,
    "verified": false,
    "country": "US",
    "stateOrProvince": "AL",
    "city": "Gulf Shores"
  },
  {
    "id": "walmart_681",
    "store_id": "681",
    "name": "Walmart - Guntersville, AL",
    "address": "11697 Us Highway 431, Guntersville, AL 35976",
    "postal_code": "35976",
    "category": "walmart_store",
    "icon": "walmart_store.png",
    "lat": 34.336,
    "lng": -86.3102,
    "verified": false,
    "country": "US",
    "stateOrProvince": "AL",
    "city": "Guntersville"
  },
  {
    "id": "walmart_409",
    "store_id": "409",
    "name": "Walmart - Haleyville, AL",
    "address": "42466 Highway 195, Haleyville, AL 35565",
    "postal_code": "35565",
    "category": "walmart_store",
    "icon": "walmart_store.png",
    "lat": 34.2182,
    "lng": -87.6132,
    "verified": false,
    "country": "US",
    "stateOrProvince": "AL",
    "city": "Haleyville"
  },
  {
    "id": "walmart_1100",
    "store_id": "1100",
    "name": "Walmart - Hamilton, AL",
    "address": "1706 Military St S, Hamilton, AL 35570",
    "postal_code": "35570",
    "category": "walmart_store",
    "icon": "walmart_store.png",
    "lat": 34.1782,
    "lng": -87.9766,
    "verified": false,
    "country": "US",
    "stateOrProvince": "AL",
    "city": "Hamilton"
  },
  {
    "id": "walmart_1124",
    "store_id": "1124",
    "name": "Walmart - Hartselle, AL",
    "address": "1201 Highway 31 Nw, Hartselle, AL 35640",
    "postal_code": "35640",
    "category": "walmart_store",
    "icon": "walmart_store.png",
    "lat": 34.433,
    "lng": -86.9311,
    "verified": false,
    "country": "US",
    "stateOrProvince": "AL",
    "city": "Hartselle"
  },
  {
    "id": "walmart_6878",
    "store_id": "6878",
    "name": "Walmart - Hazel Green, AL",
    "address": "14595 Highway 231 431 N, Hazel Green, AL 35750",
    "postal_code": "35750",
    "category": "walmart_store",
    "icon": "walmart_store.png",
    "lat": 34.9332,
    "lng": -86.5717,
    "verified": false,
    "country": "US",
    "stateOrProvince": "AL",
    "city": "Hazel Green"
  },
  {
    "id": "walmart_4189",
    "store_id": "4189",
    "name": "Walmart - Helena, AL",
    "address": "335 Helena Marketplace, Helena, AL 35080",
    "postal_code": "35080",
    "category": "walmart_store",
    "icon": "walmart_store.png",
    "lat": 33.2492,
    "lng": -86.9204,
    "verified": false,
    "country": "US",
    "stateOrProvince": "AL",
    "city": "Helena"
  },
  {
    "id": "walmart_1481",
    "store_id": "1481",
    "name": "Walmart - Homewood, AL",
    "address": "209 Lakeshore Pkwy, Homewood, AL 35209",
    "postal_code": "35209",
    "category": "walmart_store",
    "icon": "walmart_store.png",
    "lat": 33.4645,
    "lng": -86.8066,
    "verified": false,
    "country": "US",
    "stateOrProvince": "AL",
    "city": "Homewood"
  },
  {
    "id": "walmart_3184",
    "store_id": "3184",
    "name": "Walmart - Birmingham, AL",
    "address": "3320 Lorna Rd",
    "postal_code": "35216",
    "category": "walmart_store",
    "icon": "walmart_store.png",
    "lat": 33.4211,
    "lng": -86.7833,
    "verified": false,
    "country": "US",
    "stateOrProvince": "AL",
    "city": "Birmingham"
  },
  {
    "id": "walmart_1229",
    "store_id": "1229",
    "name": "Walmart - Birmingham, AL",
    "address": "2780 John Hawkins Pkwy",
    "postal_code": "35244",
    "category": "walmart_store",
    "icon": "walmart_store.png",
    "lat": 33.3514,
    "lng": -86.8215,
    "verified": false,
    "country": "US",
    "stateOrProvince": "AL",
    "city": "Birmingham"
  },
  {
    "id": "walmart_4497",
    "store_id": "4497",
    "name": "Walmart - Hueytown, AL",
    "address": "1007 Red Farmer Dr, Hueytown, AL 35023",
    "postal_code": "35023",
    "category": "walmart_store",
    "icon": "walmart_store.png",
    "lat": 33.4626,
    "lng": -87.0926,
    "verified": false,
    "country": "US",
    "stateOrProvince": "AL",
    "city": "Hueytown"
  },
  {
    "id": "walmart_5197",
    "store_id": "5197",
    "name": "Walmart - Huntsville, AL",
    "address": "330 Sutton Rd Se, Huntsville, AL 35763",
    "postal_code": "35763",
    "category": "walmart_store",
    "icon": "walmart_store.png",
    "lat": 34.6292,
    "lng": -86.458,
    "verified": false,
    "country": "US",
    "stateOrProvince": "AL",
    "city": "Huntsville"
  },
  {
    "id": "walmart_7254",
    "store_id": "7254",
    "name": "Walmart - Huntsville, AL",
    "address": "1 Cotton Valley Drive Nw",
    "postal_code": "35810",
    "category": "walmart_store",
    "icon": "walmart_store.png",
    "lat": 34.8042,
    "lng": -86.5924,
    "verified": false,
    "country": "US",
    "stateOrProvince": "AL",
    "city": "Huntsville"
  },
  {
    "id": "walmart_3185",
    "store_id": "3185",
    "name": "Walmart - Huntsville, AL",
    "address": "4226 Oakwood Ave Nw",
    "postal_code": "35810",
    "category": "walmart_store",
    "icon": "walmart_store.png",
    "lat": 34.8042,
    "lng": -86.5924,
    "verified": false,
    "country": "US",
    "stateOrProvince": "AL",
    "city": "Huntsville"
  },
  {
    "id": "walmart_5716",
    "store_id": "5716",
    "name": "Walmart - Huntsville, AL",
    "address": "9020 Bailey Cove Rd Se",
    "postal_code": "35802",
    "category": "walmart_store",
    "icon": "walmart_store.png",
    "lat": 34.6692,
    "lng": -86.5603,
    "verified": false,
    "country": "US",
    "stateOrProvince": "AL",
    "city": "Huntsville"
  },
  {
    "id": "walmart_5925",
    "store_id": "5925",
    "name": "Walmart - Huntsville, AL",
    "address": "2305 Jordan Ln Sw",
    "postal_code": "35805",
    "category": "walmart_store",
    "icon": "walmart_store.png",
    "lat": 34.7061,
    "lng": -86.6288,
    "verified": false,
    "country": "US",
    "stateOrProvince": "AL",
    "city": "Huntsville"
  },
  {
    "id": "walmart_332",
    "store_id": "332",
    "name": "Walmart - Huntsville, AL",
    "address": "6140a Univ Drive",
    "postal_code": "35806",
    "category": "walmart_store",
    "icon": "walmart_store.png",
    "lat": 34.7592,
    "lng": -86.6896,
    "verified": false,
    "country": "US",
    "stateOrProvince": "AL",
    "city": "Huntsville"
  },
  {
    "id": "walmart_375",
    "store_id": "375",
    "name": "Walmart - Huntsville, AL",
    "address": "3031 Memorial Pkwy Sw",
    "postal_code": "35801",
    "category": "walmart_store",
    "icon": "walmart_store.png",
    "lat": 34.7114,
    "lng": -86.5493,
    "verified": false,
    "country": "US",
    "stateOrProvince": "AL",
    "city": "Huntsville"
  },
  {
    "id": "walmart_433",
    "store_id": "433",
    "name": "Walmart - Huntsville, AL",
    "address": "2200 Sparkman Dr Nw",
    "postal_code": "35810",
    "category": "walmart_store",
    "icon": "walmart_store.png",
    "lat": 34.8042,
    "lng": -86.5924,
    "verified": false,
    "country": "US",
    "stateOrProvince": "AL",
    "city": "Huntsville"
  },
  {
    "id": "walmart_434",
    "store_id": "434",
    "name": "Walmart - Huntsville, AL",
    "address": "11610 Memorial Pkwy Sw",
    "postal_code": "35803",
    "category": "walmart_store",
    "icon": "walmart_store.png",
    "lat": 34.5612,
    "lng": -86.526,
    "verified": false,
    "country": "US",
    "stateOrProvince": "AL",
    "city": "Huntsville"
  },
  {
    "id": "walmart_7324",
    "store_id": "7324",
    "name": "Walmart - Huntsville, AL",
    "address": "2165 Winchester Rd",
    "postal_code": "35811",
    "category": "walmart_store",
    "icon": "walmart_store.png",
    "lat": 34.8136,
    "lng": -86.5035,
    "verified": false,
    "country": "US",
    "stateOrProvince": "AL",
    "city": "Huntsville"
  },
  {
    "id": "walmart_2760",
    "store_id": "2760",
    "name": "Walmart - Jackson, AL",
    "address": "4206 N College Ave, Jackson, AL 36545",
    "postal_code": "36545",
    "category": "walmart_store",
    "icon": "walmart_store.png",
    "lat": 31.4649,
    "lng": -87.8907,
    "verified": false,
    "country": "US",
    "stateOrProvince": "AL",
    "city": "Jackson"
  },
  {
    "id": "walmart_300",
    "store_id": "300",
    "name": "Walmart - Jacksonville, AL",
    "address": "1625 Pelham Rd S, Jacksonville, AL 36265",
    "postal_code": "36265",
    "category": "walmart_store",
    "icon": "walmart_store.png",
    "lat": 33.8551,
    "lng": -85.776,
    "verified": false,
    "country": "US",
    "stateOrProvince": "AL",
    "city": "Jacksonville"
  },
  {
    "id": "walmart_287",
    "store_id": "287",
    "name": "Walmart - Jasper, AL",
    "address": "1801 Highway 78 E, Jasper, AL 35501",
    "postal_code": "35501",
    "category": "walmart_store",
    "icon": "walmart_store.png",
    "lat": 33.8118,
    "lng": -87.2835,
    "verified": false,
    "country": "US",
    "stateOrProvince": "AL",
    "city": "Jasper"
  },
  {
    "id": "walmart_562",
    "store_id": "562",
    "name": "Walmart - Leeds, AL",
    "address": "8551 Whitfield Ave, Leeds, AL 35094",
    "postal_code": "35094",
    "category": "walmart_store",
    "icon": "walmart_store.png",
    "lat": 33.5136,
    "lng": -86.5778,
    "verified": false,
    "country": "US",
    "stateOrProvince": "AL",
    "city": "Leeds"
  },
  {
    "id": "walmart_7342",
    "store_id": "7342",
    "name": "Walmart - Madison, AL",
    "address": "7140 Wall Triana Highway",
    "postal_code": "35757",
    "category": "walmart_store",
    "icon": "walmart_store.png",
    "lat": 34.7903,
    "lng": -86.7548,
    "verified": false,
    "country": "US",
    "stateOrProvince": "AL",
    "city": "Madison"
  },
  {
    "id": "walmart_2690",
    "store_id": "2690",
    "name": "Walmart - Madison, AL",
    "address": "8650 Madison Blvd",
    "postal_code": "35758",
    "category": "walmart_store",
    "icon": "walmart_store.png",
    "lat": 34.7097,
    "lng": -86.7424,
    "verified": false,
    "country": "US",
    "stateOrProvince": "AL",
    "city": "Madison"
  },
  {
    "id": "walmart_5703",
    "store_id": "5703",
    "name": "Walmart - Madison, AL",
    "address": "8580 Hwy 72 W",
    "postal_code": "35758",
    "category": "walmart_store",
    "icon": "walmart_store.png",
    "lat": 34.7097,
    "lng": -86.7424,
    "verified": false,
    "country": "US",
    "stateOrProvince": "AL",
    "city": "Madison"
  },
  {
    "id": "walmart_4318",
    "store_id": "4318",
    "name": "Walmart - Millbrook, AL",
    "address": "145 Kelley Blvd, Millbrook, AL 36054",
    "postal_code": "36054",
    "category": "walmart_store",
    "icon": "walmart_store.png",
    "lat": 32.4674,
    "lng": -86.3595,
    "verified": false,
    "country": "US",
    "stateOrProvince": "AL",
    "city": "Millbrook"
  },
  {
    "id": "walmart_4210",
    "store_id": "4210",
    "name": "Walmart - Mobile, AL",
    "address": "1300 North University",
    "postal_code": "36618",
    "category": "walmart_store",
    "icon": "walmart_store.png",
    "lat": 30.7396,
    "lng": -88.1702,
    "verified": false,
    "country": "US",
    "stateOrProvince": "AL",
    "city": "Mobile"
  },
  {
    "id": "walmart_4648",
    "store_id": "4648",
    "name": "Walmart - Mobile, AL",
    "address": "6575 Airport Blvd",
    "postal_code": "36608",
    "category": "walmart_store",
    "icon": "walmart_store.png",
    "lat": 30.6666,
    "lng": -88.2663,
    "verified": false,
    "country": "US",
    "stateOrProvince": "AL",
    "city": "Mobile"
  },
  {
    "id": "walmart_4657",
    "store_id": "4657",
    "name": "Walmart - Mobile, AL",
    "address": "6350 Cottage Hill Rd",
    "postal_code": "36609",
    "category": "walmart_store",
    "icon": "walmart_store.png",
    "lat": 30.6593,
    "lng": -88.1586,
    "verified": false,
    "country": "US",
    "stateOrProvince": "AL",
    "city": "Mobile"
  },
  {
    "id": "walmart_5098",
    "store_id": "5098",
    "name": "Walmart - Mobile, AL",
    "address": "1970 S University Blvd",
    "postal_code": "36609",
    "category": "walmart_store",
    "icon": "walmart_store.png",
    "lat": 30.6593,
    "lng": -88.1586,
    "verified": false,
    "country": "US",
    "stateOrProvince": "AL",
    "city": "Mobile"
  },
  {
    "id": "walmart_5740",
    "store_id": "5740",
    "name": "Walmart - Mobile, AL",
    "address": "2570 Government Blvd",
    "postal_code": "36606",
    "category": "walmart_store",
    "icon": "walmart_store.png",
    "lat": 30.6656,
    "lng": -88.1039,
    "verified": false,
    "country": "US",
    "stateOrProvince": "AL",
    "city": "Mobile"
  },
  {
    "id": "walmart_853",
    "store_id": "853",
    "name": "Walmart - Mobile, AL",
    "address": "685 Schillinger Rd S",
    "postal_code": "36695",
    "category": "walmart_store",
    "icon": "walmart_store.png",
    "lat": 30.631,
    "lng": -88.2985,
    "verified": false,
    "country": "US",
    "stateOrProvince": "AL",
    "city": "Mobile"
  },
  {
    "id": "walmart_866",
    "store_id": "866",
    "name": "Walmart - Mobile, AL",
    "address": "5245 Rangeline Service Rd S",
    "postal_code": "36619",
    "category": "walmart_store",
    "icon": "walmart_store.png",
    "lat": 30.5936,
    "lng": -88.1893,
    "verified": false,
    "country": "US",
    "stateOrProvince": "AL",
    "city": "Mobile"
  },
  {
    "id": "walmart_991",
    "store_id": "991",
    "name": "Walmart - Mobile, AL",
    "address": "101 E I65 Service Rd S",
    "postal_code": "36606",
    "category": "walmart_store",
    "icon": "walmart_store.png",
    "lat": 30.6656,
    "lng": -88.1039,
    "verified": false,
    "country": "US",
    "stateOrProvince": "AL",
    "city": "Mobile"
  },
  {
    "id": "walmart_4581",
    "store_id": "4581",
    "name": "Walmart - Mobile, AL",
    "address": "2500 Dawes Rd",
    "postal_code": "36695",
    "category": "walmart_store",
    "icon": "walmart_store.png",
    "lat": 30.631,
    "lng": -88.2985,
    "verified": false,
    "country": "US",
    "stateOrProvince": "AL",
    "city": "Mobile"
  },
  {
    "id": "walmart_1493",
    "store_id": "1493",
    "name": "Walmart - Monroeville, AL",
    "address": "3371 S Alabama Ave, Monroeville, AL 36460",
    "postal_code": "36460",
    "category": "walmart_store",
    "icon": "walmart_store.png",
    "lat": 31.4992,
    "lng": -87.3294,
    "verified": false,
    "country": "US",
    "stateOrProvince": "AL",
    "city": "Monroeville"
  },
  {
    "id": "walmart_4672",
    "store_id": "4672",
    "name": "Walmart - Montgomery, AL",
    "address": "1600 Federal Drive",
    "postal_code": "36109",
    "category": "walmart_store",
    "icon": "walmart_store.png",
    "lat": 32.3904,
    "lng": -86.2412,
    "verified": false,
    "country": "US",
    "stateOrProvince": "AL",
    "city": "Montgomery"
  },
  {
    "id": "walmart_4691",
    "store_id": "4691",
    "name": "Walmart - Montgomery, AL",
    "address": "8035 Vaughn Road",
    "postal_code": "36116",
    "category": "walmart_store",
    "icon": "walmart_store.png",
    "lat": 32.2522,
    "lng": -86.2086,
    "verified": false,
    "country": "US",
    "stateOrProvince": "AL",
    "city": "Montgomery"
  },
  {
    "id": "walmart_930",
    "store_id": "930",
    "name": "Walmart - Montgomery, AL",
    "address": "3801 Eastern Blvd",
    "postal_code": "36116",
    "category": "walmart_store",
    "icon": "walmart_store.png",
    "lat": 32.2522,
    "lng": -86.2086,
    "verified": false,
    "country": "US",
    "stateOrProvince": "AL",
    "city": "Montgomery"
  },
  {
    "id": "walmart_938",
    "store_id": "938",
    "name": "Walmart - Montgomery, AL",
    "address": "6495 Atlanta Hwy",
    "postal_code": "36117",
    "category": "walmart_store",
    "icon": "walmart_store.png",
    "lat": 32.3725,
    "lng": -86.1339,
    "verified": false,
    "country": "US",
    "stateOrProvince": "AL",
    "city": "Montgomery"
  },
  {
    "id": "walmart_4407",
    "store_id": "4407",
    "name": "Walmart - Montgomery, AL",
    "address": "10710 Chantilly Pkwy",
    "postal_code": "36117",
    "category": "walmart_store",
    "icon": "walmart_store.png",
    "lat": 32.3725,
    "lng": -86.1339,
    "verified": false,
    "country": "US",
    "stateOrProvince": "AL",
    "city": "Montgomery"
  },
  {
    "id": "walmart_5348",
    "store_id": "5348",
    "name": "Walmart - Montgomery, AL",
    "address": "851 Ann St",
    "postal_code": "36107",
    "category": "walmart_store",
    "icon": "walmart_store.png",
    "lat": 32.3832,
    "lng": -86.282,
    "verified": false,
    "country": "US",
    "stateOrProvince": "AL",
    "city": "Montgomery"
  },
  {
    "id": "walmart_394",
    "store_id": "394",
    "name": "Walmart - Moulton, AL",
    "address": "15445 Highway 24, Moulton, AL 35650",
    "postal_code": "35650",
    "category": "walmart_store",
    "icon": "walmart_store.png",
    "lat": 34.4606,
    "lng": -87.3188,
    "verified": false,
    "country": "US",
    "stateOrProvince": "AL",
    "city": "Moulton"
  },
  {
    "id": "walmart_660",
    "store_id": "660",
    "name": "Walmart - Muscle Shoals, AL",
    "address": "301 Avalon Ave, Muscle Shoals, AL 35661",
    "postal_code": "35661",
    "category": "walmart_store",
    "icon": "walmart_store.png",
    "lat": 34.7724,
    "lng": -87.5549,
    "verified": false,
    "country": "US",
    "stateOrProvince": "AL",
    "city": "Muscle Shoals"
  },
  {
    "id": "walmart_5248",
    "store_id": "5248",
    "name": "Walmart - Northport, AL",
    "address": "1660 Mcfarland Boulevard",
    "postal_code": "35476",
    "category": "walmart_store",
    "icon": "walmart_store.png",
    "lat": 33.2238,
    "lng": -87.6107,
    "verified": false,
    "country": "US",
    "stateOrProvince": "AL",
    "city": "Northport"
  },
  {
    "id": "walmart_2306",
    "store_id": "2306",
    "name": "Walmart - Northport, AL",
    "address": "5710 Mcfarland Blvd",
    "postal_code": "35476",
    "category": "walmart_store",
    "icon": "walmart_store.png",
    "lat": 33.2238,
    "lng": -87.6107,
    "verified": false,
    "country": "US",
    "stateOrProvince": "AL",
    "city": "Northport"
  },
  {
    "id": "walmart_315",
    "store_id": "315",
    "name": "Walmart - Oneonta, AL",
    "address": "2453 2nd Ave E, Oneonta, AL 35121",
    "postal_code": "35121",
    "category": "walmart_store",
    "icon": "walmart_store.png",
    "lat": 33.9464,
    "lng": -86.4345,
    "verified": false,
    "country": "US",
    "stateOrProvince": "AL",
    "city": "Oneonta"
  },
  {
    "id": "walmart_355",
    "store_id": "355",
    "name": "Walmart - Opelika, AL",
    "address": "2900 Pepperell Pkwy, Opelika, AL 36801",
    "postal_code": "36801",
    "category": "walmart_store",
    "icon": "walmart_store.png",
    "lat": 32.6833,
    "lng": -85.4034,
    "verified": false,
    "country": "US",
    "stateOrProvince": "AL",
    "city": "Opelika"
  },
  {
    "id": "walmart_5653",
    "store_id": "5653",
    "name": "Walmart - Orange Beach, AL",
    "address": "25241 Perdido Beach Blvd Ste W, Orange Beach, AL 36561",
    "postal_code": "36561",
    "category": "walmart_store",
    "icon": "walmart_store.png",
    "lat": 30.2822,
    "lng": -87.565,
    "verified": false,
    "country": "US",
    "stateOrProvince": "AL",
    "city": "Orange Beach"
  },
  {
    "id": "walmart_809",
    "store_id": "809",
    "name": "Walmart - Oxford, AL",
    "address": "92 Plaza Ln, Oxford, AL 36203",
    "postal_code": "36203",
    "category": "walmart_store",
    "icon": "walmart_store.png",
    "lat": 33.5754,
    "lng": -85.8493,
    "verified": false,
    "country": "US",
    "stateOrProvince": "AL",
    "city": "Oxford"
  },
  {
    "id": "walmart_740",
    "store_id": "740",
    "name": "Walmart - Ozark, AL",
    "address": "1537 S Us Highway 231, Ozark, AL 36360",
    "postal_code": "36360",
    "category": "walmart_store",
    "icon": "walmart_store.png",
    "lat": 31.4547,
    "lng": -85.644,
    "verified": false,
    "country": "US",
    "stateOrProvince": "AL",
    "city": "Ozark"
  },
  {
    "id": "walmart_5262",
    "store_id": "5262",
    "name": "Walmart - Pelham, AL",
    "address": "2181 Pelham Pkwy, Pelham, AL 35124",
    "postal_code": "35124",
    "category": "walmart_store",
    "icon": "walmart_store.png",
    "lat": 33.3094,
    "lng": -86.765,
    "verified": false,
    "country": "US",
    "stateOrProvince": "AL",
    "city": "Pelham"
  },
  {
    "id": "walmart_5113",
    "store_id": "5113",
    "name": "Walmart - Pell City, AL",
    "address": "165 Vaughan Ln, Pell City, AL 35125",
    "postal_code": "35125",
    "category": "walmart_store",
    "icon": "walmart_store.png",
    "lat": 33.6306,
    "lng": -86.2939,
    "verified": false,
    "country": "US",
    "stateOrProvince": "AL",
    "city": "Pell City"
  },
  {
    "id": "walmart_5903",
    "store_id": "5903",
    "name": "Walmart - Phenix City, AL",
    "address": "3864 Us Highway 80 W",
    "postal_code": "36870",
    "category": "walmart_store",
    "icon": "walmart_store.png",
    "lat": 32.4858,
    "lng": -85.1213,
    "verified": false,
    "country": "US",
    "stateOrProvince": "AL",
    "city": "Phenix City"
  },
  {
    "id": "walmart_1284",
    "store_id": "1284",
    "name": "Walmart - Phenix City, AL",
    "address": "3700 Hwy 280/431 N.",
    "postal_code": "36867",
    "category": "walmart_store",
    "icon": "walmart_store.png",
    "lat": 32.4915,
    "lng": -85.0311,
    "verified": false,
    "country": "US",
    "stateOrProvince": "AL",
    "city": "Phenix City"
  },
  {
    "id": "walmart_483",
    "store_id": "483",
    "name": "Walmart - Prattville, AL",
    "address": "1903 Cobbs Ford Rd, Prattville, AL 36066",
    "postal_code": "36066",
    "category": "walmart_store",
    "icon": "walmart_store.png",
    "lat": 32.5007,
    "lng": -86.4194,
    "verified": false,
    "country": "US",
    "stateOrProvince": "AL",
    "city": "Prattville"
  },
  {
    "id": "walmart_863",
    "store_id": "863",
    "name": "Walmart - Roanoke, AL",
    "address": "4180 Us Hwy 431, Roanoke, AL 36274",
    "postal_code": "36274",
    "category": "walmart_store",
    "icon": "walmart_store.png",
    "lat": 33.172,
    "lng": -85.3798,
    "verified": false,
    "country": "US",
    "stateOrProvince": "AL",
    "city": "Roanoke"
  },
  {
    "id": "walmart_6173",
    "store_id": "6173",
    "name": "Walmart - Robertsdale, AL",
    "address": "21141 State Highway 59, Robertsdale, AL 36567",
    "postal_code": "36567",
    "category": "walmart_store",
    "icon": "walmart_store.png",
    "lat": 30.6149,
    "lng": -87.5649,
    "verified": false,
    "country": "US",
    "stateOrProvince": "AL",
    "city": "Robertsdale"
  },
  {
    "id": "walmart_403",
    "store_id": "403",
    "name": "Walmart - Russellville, AL",
    "address": "13675 Highway 43, Russellville, AL 35653",
    "postal_code": "35653",
    "category": "walmart_store",
    "icon": "walmart_store.png",
    "lat": 34.5404,
    "lng": -87.8803,
    "verified": false,
    "country": "US",
    "stateOrProvince": "AL",
    "city": "Russellville"
  },
  {
    "id": "walmart_1212",
    "store_id": "1212",
    "name": "Walmart - Saraland, AL",
    "address": "1095 Industrial Pkwy, Saraland, AL 36571",
    "postal_code": "36571",
    "category": "walmart_store",
    "icon": "walmart_store.png",
    "lat": 30.8736,
    "lng": -88.0953,
    "verified": false,
    "country": "US",
    "stateOrProvince": "AL",
    "city": "Saraland"
  },
  {
    "id": "walmart_712",
    "store_id": "712",
    "name": "Walmart - Scottsboro, AL",
    "address": "24833 John T Reid Pkwy, Scottsboro, AL 35768",
    "postal_code": "35768",
    "category": "walmart_store",
    "icon": "walmart_store.png",
    "lat": 34.7821,
    "lng": -86.0882,
    "verified": false,
    "country": "US",
    "stateOrProvince": "AL",
    "city": "Scottsboro"
  },
  {
    "id": "walmart_700",
    "store_id": "700",
    "name": "Walmart - Selma, AL",
    "address": "1501 Al Highway 14 E, Selma, AL 36703",
    "postal_code": "36703",
    "category": "walmart_store",
    "icon": "walmart_store.png",
    "lat": 32.4384,
    "lng": -86.8988,
    "verified": false,
    "country": "US",
    "stateOrProvince": "AL",
    "city": "Selma"
  },
  {
    "id": "walmart_5174",
    "store_id": "5174",
    "name": "Walmart - Semmes, AL",
    "address": "7855 Moffett Rd, Semmes, AL 36575",
    "postal_code": "36575",
    "category": "walmart_store",
    "icon": "walmart_store.png",
    "lat": 30.7839,
    "lng": -88.2714,
    "verified": false,
    "country": "US",
    "stateOrProvince": "AL",
    "city": "Semmes"
  },
  {
    "id": "walmart_3386",
    "store_id": "3386",
    "name": "Walmart - Springville, AL",
    "address": "160 Springville Station Blvd, Springville, AL 35146",
    "postal_code": "35146",
    "category": "walmart_store",
    "icon": "walmart_store.png",
    "lat": 33.7868,
    "lng": -86.4468,
    "verified": false,
    "country": "US",
    "stateOrProvince": "AL",
    "city": "Springville"
  },
  {
    "id": "walmart_2723",
    "store_id": "2723",
    "name": "Walmart - Sumiton, AL",
    "address": "690 Highway 78, Sumiton, AL 35148",
    "postal_code": "35148",
    "category": "walmart_store",
    "icon": "walmart_store.png",
    "lat": 33.7567,
    "lng": -87.0451,
    "verified": false,
    "country": "US",
    "stateOrProvince": "AL",
    "city": "Sumiton"
  },
  {
    "id": "walmart_730",
    "store_id": "730",
    "name": "Walmart - Sylacauga, AL",
    "address": "41301 Us Highway 280, Sylacauga, AL 35150",
    "postal_code": "35150",
    "category": "walmart_store",
    "icon": "walmart_store.png",
    "lat": 33.1798,
    "lng": -86.2258,
    "verified": false,
    "country": "US",
    "stateOrProvince": "AL",
    "city": "Sylacauga"
  },
  {
    "id": "walmart_432",
    "store_id": "432",
    "name": "Walmart - Talladega, AL",
    "address": "214 Haynes St, Talladega, AL 35160",
    "postal_code": "35160",
    "category": "walmart_store",
    "icon": "walmart_store.png",
    "lat": 33.3761,
    "lng": -86.0712,
    "verified": false,
    "country": "US",
    "stateOrProvince": "AL",
    "city": "Talladega"
  },
  {
    "id": "walmart_1057",
    "store_id": "1057",
    "name": "Walmart - Tallassee, AL",
    "address": "2190 Gilmer Avenue, Tallassee, AL 36078",
    "postal_code": "36078",
    "category": "walmart_store",
    "icon": "walmart_store.png",
    "lat": 32.5562,
    "lng": -85.9128,
    "verified": false,
    "country": "US",
    "stateOrProvince": "AL",
    "city": "Tallassee"
  },
  {
    "id": "walmart_5744",
    "store_id": "5744",
    "name": "Walmart - Theodore, AL",
    "address": "7320 Theodore Dawes Rd, Theodore, AL 36582",
    "postal_code": "36582",
    "category": "walmart_store",
    "icon": "walmart_store.png",
    "lat": 30.5008,
    "lng": -88.2032,
    "verified": false,
    "country": "US",
    "stateOrProvince": "AL",
    "city": "Theodore"
  },
  {
    "id": "walmart_1174",
    "store_id": "1174",
    "name": "Walmart - Thomasville, AL",
    "address": "34301 Highway 43, Thomasville, AL 36784",
    "postal_code": "36784",
    "category": "walmart_store",
    "icon": "walmart_store.png",
    "lat": 31.9209,
    "lng": -87.8787,
    "verified": false,
    "country": "US",
    "stateOrProvince": "AL",
    "city": "Thomasville"
  },
  {
    "id": "walmart_723",
    "store_id": "723",
    "name": "Walmart - Troy, AL",
    "address": "1420 Highway 231 S, Troy, AL 36081",
    "postal_code": "36081",
    "category": "walmart_store",
    "icon": "walmart_store.png",
    "lat": 31.9032,
    "lng": -85.8691,
    "verified": false,
    "country": "US",
    "stateOrProvince": "AL",
    "city": "Troy"
  },
  {
    "id": "walmart_2713",
    "store_id": "2713",
    "name": "Walmart - Trussville, AL",
    "address": "5919 Trussville Crossings Pkwy, Trussville, AL 35235",
    "postal_code": "35235",
    "category": "walmart_store",
    "icon": "walmart_store.png",
    "lat": 33.6273,
    "lng": -86.6533,
    "verified": false,
    "country": "US",
    "stateOrProvince": "AL",
    "city": "Trussville"
  },
  {
    "id": "walmart_5256",
    "store_id": "5256",
    "name": "Walmart - Tuscaloosa, AL",
    "address": "4201 Hargrove Rd E",
    "postal_code": "35405",
    "category": "walmart_store",
    "icon": "walmart_store.png",
    "lat": 33.1101,
    "lng": -87.5521,
    "verified": false,
    "country": "US",
    "stateOrProvince": "AL",
    "city": "Tuscaloosa"
  },
  {
    "id": "walmart_715",
    "store_id": "715",
    "name": "Walmart - Tuscaloosa, AL",
    "address": "1501 Skyland Blvd E",
    "postal_code": "35405",
    "category": "walmart_store",
    "icon": "walmart_store.png",
    "lat": 33.1101,
    "lng": -87.5521,
    "verified": false,
    "country": "US",
    "stateOrProvince": "AL",
    "city": "Tuscaloosa"
  },
  {
    "id": "walmart_733",
    "store_id": "733",
    "name": "Walmart - Valley, AL",
    "address": "3501 20th Ave, Valley, AL 36854",
    "postal_code": "36854",
    "category": "walmart_store",
    "icon": "walmart_store.png",
    "lat": 32.7602,
    "lng": -85.1979,
    "verified": false,
    "country": "US",
    "stateOrProvince": "AL",
    "city": "Valley"
  },
  {
    "id": "walmart_4580",
    "store_id": "4580",
    "name": "Walmart - Vestavia Hills, AL",
    "address": "1300 Montgomery Hwy, Vestavia Hills, AL 35216",
    "postal_code": "35216",
    "category": "walmart_store",
    "icon": "walmart_store.png",
    "lat": 33.4211,
    "lng": -86.7833,
    "verified": false,
    "country": "US",
    "stateOrProvince": "AL",
    "city": "Vestavia Hills"
  },
  {
    "id": "walmart_1101",
    "store_id": "1101",
    "name": "Walmart - Wetumpka, AL",
    "address": "4538 Us Highway 231, Wetumpka, AL 36092",
    "postal_code": "36092",
    "category": "walmart_store",
    "icon": "walmart_store.png",
    "lat": 32.6143,
    "lng": -86.202,
    "verified": false,
    "country": "US",
    "stateOrProvince": "AL",
    "city": "Wetumpka"
  },
  {
    "id": "walmart_362",
    "store_id": "362",
    "name": "Walmart - Winfield, AL",
    "address": "2575 Us Highway 43, Winfield, AL 35594",
    "postal_code": "35594",
    "category": "walmart_store",
    "icon": "walmart_store.png",
    "lat": 33.9474,
    "lng": -87.7828,
    "verified": false,
    "country": "US",
    "stateOrProvince": "AL",
    "city": "Winfield"
  },
  {
    "id": "walmart_2070",
    "store_id": "2070",
    "name": "Walmart - Anchorage, AK",
    "address": "3101 A St",
    "postal_code": "99503",
    "category": "walmart_store",
    "icon": "walmart_store.png",
    "lat": 61.1891,
    "lng": -149.8862,
    "verified": false,
    "country": "US",
    "stateOrProvince": "AK",
    "city": "Anchorage"
  },
  {
    "id": "walmart_2071",
    "store_id": "2071",
    "name": "Walmart - Anchorage, AK",
    "address": "8900 Old Seward Hwy",
    "postal_code": "99515",
    "category": "walmart_store",
    "icon": "walmart_store.png",
    "lat": 61.1104,
    "lng": -149.9043,
    "verified": false,
    "country": "US",
    "stateOrProvince": "AK",
    "city": "Anchorage"
  },
  {
    "id": "walmart_4359",
    "store_id": "4359",
    "name": "Walmart - Anchorage, AK",
    "address": "7405 Debarr Road",
    "postal_code": "99504",
    "category": "walmart_store",
    "icon": "walmart_store.png",
    "lat": 61.2075,
    "lng": -149.7415,
    "verified": false,
    "country": "US",
    "stateOrProvince": "AK",
    "city": "Anchorage"
  },
  {
    "id": "walmart_2188",
    "store_id": "2188",
    "name": "Walmart - Eagle River, AK",
    "address": "18600 Eagle River Rd, Eagle River, AK 99577",
    "postal_code": "99577",
    "category": "walmart_store",
    "icon": "walmart_store.png",
    "lat": 61.2353,
    "lng": -149.3206,
    "verified": false,
    "country": "US",
    "stateOrProvince": "AK",
    "city": "Eagle River"
  },
  {
    "id": "walmart_2722",
    "store_id": "2722",
    "name": "Walmart - Fairbanks, AK",
    "address": "537 Johansen Expy, Fairbanks, AK 99701",
    "postal_code": "99701",
    "category": "walmart_store",
    "icon": "walmart_store.png",
    "lat": 64.5608,
    "lng": -147.6728,
    "verified": false,
    "country": "US",
    "stateOrProvince": "AK",
    "city": "Fairbanks"
  },
  {
    "id": "walmart_4474",
    "store_id": "4474",
    "name": "Walmart - Kenai, AK",
    "address": "10096 Kenai Spur Hwy, Kenai, AK 99611",
    "postal_code": "99611",
    "category": "walmart_store",
    "icon": "walmart_store.png",
    "lat": 60.7562,
    "lng": -150.5203,
    "verified": false,
    "country": "US",
    "stateOrProvince": "AK",
    "city": "Kenai"
  },
  {
    "id": "walmart_2710",
    "store_id": "2710",
    "name": "Walmart - Ketchikan, AK",
    "address": "4230 Don King Rd, Ketchikan, AK 99901",
    "postal_code": "99901",
    "category": "walmart_store",
    "icon": "walmart_store.png",
    "lat": 55.5837,
    "lng": -131.393,
    "verified": false,
    "country": "US",
    "stateOrProvince": "AK",
    "city": "Ketchikan"
  },
  {
    "id": "walmart_2711",
    "store_id": "2711",
    "name": "Walmart - Kodiak, AK",
    "address": "2911 Mill Bay Rd, Kodiak, AK 99615",
    "postal_code": "99615",
    "category": "walmart_store",
    "icon": "walmart_store.png",
    "lat": 57.6874,
    "lng": -153.379,
    "verified": false,
    "country": "US",
    "stateOrProvince": "AK",
    "city": "Kodiak"
  },
  {
    "id": "walmart_2074",
    "store_id": "2074",
    "name": "Walmart - Wasilla, AK",
    "address": "1350 S Seward Meridian Pkwy, Wasilla, AK 99654",
    "postal_code": "99654",
    "category": "walmart_store",
    "icon": "walmart_store.png",
    "lat": 61.4935,
    "lng": -149.7675,
    "verified": false,
    "country": "US",
    "stateOrProvince": "AK",
    "city": "Wasilla"
  },
  {
    "id": "walmart_5329",
    "store_id": "5329",
    "name": "Walmart - Anthem, AZ",
    "address": "4435 W Anthem Way, Anthem, AZ 85086",
    "postal_code": "85086",
    "category": "walmart_store",
    "icon": "walmart_store.png",
    "lat": 33.8597,
    "lng": -112.1159,
    "verified": false,
    "country": "US",
    "stateOrProvince": "AZ",
    "city": "Anthem"
  },
  {
    "id": "walmart_1381",
    "store_id": "1381",
    "name": "Walmart - Apache Junction, AZ",
    "address": "2555 W Apache Trl, Apache Junction, AZ 85120",
    "postal_code": "85120",
    "category": "walmart_store",
    "icon": "walmart_store.png",
    "lat": 33.4149,
    "lng": -111.5535,
    "verified": false,
    "country": "US",
    "stateOrProvince": "AZ",
    "city": "Apache Junction"
  },
  {
    "id": "walmart_2554",
    "store_id": "2554",
    "name": "Walmart - Avondale, AZ",
    "address": "13055 W Rancho Santa Fe Blvd, Avondale, AZ 85392",
    "postal_code": "85392",
    "category": "walmart_store",
    "icon": "walmart_store.png",
    "lat": 33.4758,
    "lng": -112.3068,
    "verified": false,
    "country": "US",
    "stateOrProvince": "AZ",
    "city": "Avondale"
  },
  {
    "id": "walmart_3807",
    "store_id": "3807",
    "name": "Walmart - Benson, AZ",
    "address": "201 S Prickly Pear Ave, Benson, AZ 85602",
    "postal_code": "85602",
    "category": "walmart_store",
    "icon": "walmart_store.png",
    "lat": 32.1992,
    "lng": -110.3304,
    "verified": false,
    "country": "US",
    "stateOrProvince": "AZ",
    "city": "Benson"
  },
  {
    "id": "walmart_3407",
    "store_id": "3407",
    "name": "Walmart - Buckeye, AZ",
    "address": "1060 S Watson Rd, Buckeye, AZ 85326",
    "postal_code": "85326",
    "category": "walmart_store",
    "icon": "walmart_store.png",
    "lat": 33.2412,
    "lng": -112.7681,
    "verified": false,
    "country": "US",
    "stateOrProvince": "AZ",
    "city": "Buckeye"
  },
  {
    "id": "walmart_1370",
    "store_id": "1370",
    "name": "Walmart - Bullhead City, AZ",
    "address": "2840 Highway 95, Bullhead City, AZ 86442",
    "postal_code": "86442",
    "category": "walmart_store",
    "icon": "walmart_store.png",
    "lat": 35.0848,
    "lng": -114.5699,
    "verified": false,
    "country": "US",
    "stateOrProvince": "AZ",
    "city": "Bullhead City"
  },
  {
    "id": "walmart_1218",
    "store_id": "1218",
    "name": "Walmart - Casa Grande, AZ",
    "address": "1741 E Florence Blvd, Casa Grande, AZ 85122",
    "postal_code": "85122",
    "category": "walmart_store",
    "icon": "walmart_store.png",
    "lat": 32.8729,
    "lng": -111.7449,
    "verified": false,
    "country": "US",
    "stateOrProvince": "AZ",
    "city": "Casa Grande"
  },
  {
    "id": "walmart_5835",
    "store_id": "5835",
    "name": "Walmart - Cave Creek, AZ",
    "address": "34399 N Cave Creek Rd, Cave Creek, AZ 85331",
    "postal_code": "85331",
    "category": "walmart_store",
    "icon": "walmart_store.png",
    "lat": 33.8412,
    "lng": -111.9173,
    "verified": false,
    "country": "US",
    "stateOrProvince": "AZ",
    "city": "Cave Creek"
  },
  {
    "id": "walmart_4324",
    "store_id": "4324",
    "name": "Walmart - Chandler, AZ",
    "address": "1900 E Chandler Blvd",
    "postal_code": "85225",
    "category": "walmart_store",
    "icon": "walmart_store.png",
    "lat": 33.326,
    "lng": -111.8244,
    "verified": false,
    "country": "US",
    "stateOrProvince": "AZ",
    "city": "Chandler"
  },
  {
    "id": "walmart_1512",
    "store_id": "1512",
    "name": "Walmart - Chandler, AZ",
    "address": "800 W Warner Rd",
    "postal_code": "85225",
    "category": "walmart_store",
    "icon": "walmart_store.png",
    "lat": 33.326,
    "lng": -111.8244,
    "verified": false,
    "country": "US",
    "stateOrProvince": "AZ",
    "city": "Chandler"
  },
  {
    "id": "walmart_2671",
    "store_id": "2671",
    "name": "Walmart - Chandler, AZ",
    "address": "1175 S Arizona Ave",
    "postal_code": "85286",
    "category": "walmart_store",
    "icon": "walmart_store.png",
    "lat": 33.2698,
    "lng": -111.8288,
    "verified": false,
    "country": "US",
    "stateOrProvince": "AZ",
    "city": "Chandler"
  },
  {
    "id": "walmart_3360",
    "store_id": "3360",
    "name": "Walmart - Chandler, AZ",
    "address": "2750 E Germann Rd",
    "postal_code": "85286",
    "category": "walmart_store",
    "icon": "walmart_store.png",
    "lat": 33.2698,
    "lng": -111.8288,
    "verified": false,
    "country": "US",
    "stateOrProvince": "AZ",
    "city": "Chandler"
  },
  {
    "id": "walmart_6480",
    "store_id": "6480",
    "name": "Walmart - Chandler, AZ",
    "address": "3460 W. Chandler Boulevard",
    "postal_code": "85226",
    "category": "walmart_store",
    "icon": "walmart_store.png",
    "lat": 33.2663,
    "lng": -111.943,
    "verified": false,
    "country": "US",
    "stateOrProvince": "AZ",
    "city": "Chandler"
  },
  {
    "id": "walmart_1334",
    "store_id": "1334",
    "name": "Walmart - Claypool, AZ",
    "address": "100 South Ragus Rd, Claypool, AZ 85532",
    "postal_code": "85532",
    "category": "walmart_store",
    "icon": "walmart_store.png",
    "lat": 33.4077,
    "lng": -110.8144,
    "verified": false,
    "country": "US",
    "stateOrProvince": "AZ",
    "city": "Claypool"
  },
  {
    "id": "walmart_2778",
    "store_id": "2778",
    "name": "Walmart - Coolidge, AZ",
    "address": "1695 N Arizona Blvd, Coolidge, AZ 85128",
    "postal_code": "85128",
    "category": "walmart_store",
    "icon": "walmart_store.png",
    "lat": 32.9723,
    "lng": -111.5327,
    "verified": false,
    "country": "US",
    "stateOrProvince": "AZ",
    "city": "Coolidge"
  },
  {
    "id": "walmart_1299",
    "store_id": "1299",
    "name": "Walmart - Cottonwood, AZ",
    "address": "2003 E Rodeo Dr, Cottonwood, AZ 86326",
    "postal_code": "86326",
    "category": "walmart_store",
    "icon": "walmart_store.png",
    "lat": 34.6362,
    "lng": -112.1035,
    "verified": false,
    "country": "US",
    "stateOrProvince": "AZ",
    "city": "Cottonwood"
  },
  {
    "id": "walmart_1846",
    "store_id": "1846",
    "name": "Walmart - Douglas, AZ",
    "address": "199 W 5th St, Douglas, AZ 85607",
    "postal_code": "85607",
    "category": "walmart_store",
    "icon": "walmart_store.png",
    "lat": 31.4862,
    "lng": -109.4203,
    "verified": false,
    "country": "US",
    "stateOrProvince": "AZ",
    "city": "Douglas"
  },
  {
    "id": "walmart_4336",
    "store_id": "4336",
    "name": "Walmart - El Mirage, AZ",
    "address": "12900 W Thunderbird Rd, El Mirage, AZ 85335",
    "postal_code": "85335",
    "category": "walmart_store",
    "icon": "walmart_store.png",
    "lat": 33.5907,
    "lng": -112.3309,
    "verified": false,
    "country": "US",
    "stateOrProvince": "AZ",
    "city": "El Mirage"
  },
  {
    "id": "walmart_1175",
    "store_id": "1175",
    "name": "Walmart - Flagstaff, AZ",
    "address": "2750 S Woodlands Village Blvd",
    "postal_code": "86001",
    "category": "walmart_store",
    "icon": "walmart_store.png",
    "lat": 35.4749,
    "lng": -111.7,
    "verified": false,
    "country": "US",
    "stateOrProvince": "AZ",
    "city": "Flagstaff"
  },
  {
    "id": "walmart_4252",
    "store_id": "4252",
    "name": "Walmart - Flagstaff, AZ",
    "address": "2601 E Huntington Dr",
    "postal_code": "86004",
    "category": "walmart_store",
    "icon": "walmart_store.png",
    "lat": 35.2637,
    "lng": -111.1918,
    "verified": false,
    "country": "US",
    "stateOrProvince": "AZ",
    "city": "Flagstaff"
  },
  {
    "id": "walmart_4203",
    "store_id": "4203",
    "name": "Walmart - Fort Mohave, AZ",
    "address": "5210 S Highway 95, Fort Mohave, AZ 86426",
    "postal_code": "86426",
    "category": "walmart_store",
    "icon": "walmart_store.png",
    "lat": 35.0075,
    "lng": -114.5646,
    "verified": false,
    "country": "US",
    "stateOrProvince": "AZ",
    "city": "Fort Mohave"
  },
  {
    "id": "walmart_3861",
    "store_id": "3861",
    "name": "Walmart - Gilbert, AZ",
    "address": "5290 S Power Rd",
    "postal_code": "85295",
    "category": "walmart_store",
    "icon": "walmart_store.png",
    "lat": 33.3068,
    "lng": -111.7432,
    "verified": false,
    "country": "US",
    "stateOrProvince": "AZ",
    "city": "Gilbert"
  },
  {
    "id": "walmart_5186",
    "store_id": "5186",
    "name": "Walmart - Gilbert, AZ",
    "address": "2501 S Market St",
    "postal_code": "85295",
    "category": "walmart_store",
    "icon": "walmart_store.png",
    "lat": 33.3068,
    "lng": -111.7432,
    "verified": false,
    "country": "US",
    "stateOrProvince": "AZ",
    "city": "Gilbert"
  },
  {
    "id": "walmart_3314",
    "store_id": "3314",
    "name": "Walmart - Glendale, AZ",
    "address": "7450 W Glendale Ave",
    "postal_code": "85303",
    "category": "walmart_store",
    "icon": "walmart_store.png",
    "lat": 33.5308,
    "lng": -112.22,
    "verified": false,
    "country": "US",
    "stateOrProvince": "AZ",
    "city": "Glendale"
  },
  {
    "id": "walmart_3315",
    "store_id": "3315",
    "name": "Walmart - Glendale, AZ",
    "address": "4230 W Union Hills Dr",
    "postal_code": "85308",
    "category": "walmart_store",
    "icon": "walmart_store.png",
    "lat": 33.6681,
    "lng": -112.1862,
    "verified": false,
    "country": "US",
    "stateOrProvince": "AZ",
    "city": "Glendale"
  },
  {
    "id": "walmart_3844",
    "store_id": "3844",
    "name": "Walmart - Glendale, AZ",
    "address": "5137 W Olive Ave",
    "postal_code": "85302",
    "category": "walmart_store",
    "icon": "walmart_store.png",
    "lat": 33.5674,
    "lng": -112.1812,
    "verified": false,
    "country": "US",
    "stateOrProvince": "AZ",
    "city": "Glendale"
  },
  {
    "id": "walmart_3845",
    "store_id": "3845",
    "name": "Walmart - Glendale, AZ",
    "address": "6645 W Peoria Ave",
    "postal_code": "85302",
    "category": "walmart_store",
    "icon": "walmart_store.png",
    "lat": 33.5674,
    "lng": -112.1812,
    "verified": false,
    "country": "US",
    "stateOrProvince": "AZ",
    "city": "Glendale"
  },
  {
    "id": "walmart_1532",
    "store_id": "1532",
    "name": "Walmart - Glendale, AZ",
    "address": "5845 W Bell Rd",
    "postal_code": "85308",
    "category": "walmart_store",
    "icon": "walmart_store.png",
    "lat": 33.6681,
    "lng": -112.1862,
    "verified": false,
    "country": "US",
    "stateOrProvince": "AZ",
    "city": "Glendale"
  },
  {
    "id": "walmart_3241",
    "store_id": "3241",
    "name": "Walmart - Glendale, AZ",
    "address": "18551 N 83rd Ave",
    "postal_code": "85308",
    "category": "walmart_store",
    "icon": "walmart_store.png",
    "lat": 33.6681,
    "lng": -112.1862,
    "verified": false,
    "country": "US",
    "stateOrProvince": "AZ",
    "city": "Glendale"
  },
  {
    "id": "walmart_3465",
    "store_id": "3465",
    "name": "Walmart - Glendale, AZ",
    "address": "5010 N 95th Ave",
    "postal_code": "85305",
    "category": "walmart_store",
    "icon": "walmart_store.png",
    "lat": 33.5302,
    "lng": -112.2554,
    "verified": false,
    "country": "US",
    "stateOrProvince": "AZ",
    "city": "Glendale"
  },
  {
    "id": "walmart_5124",
    "store_id": "5124",
    "name": "Walmart - Glendale, AZ",
    "address": "5605 W Northern Ave",
    "postal_code": "85301",
    "category": "walmart_store",
    "icon": "walmart_store.png",
    "lat": 33.5382,
    "lng": -112.1859,
    "verified": false,
    "country": "US",
    "stateOrProvince": "AZ",
    "city": "Glendale"
  },
  {
    "id": "walmart_3604",
    "store_id": "3604",
    "name": "Walmart - Goodyear, AZ",
    "address": "14200 W Indian School Rd",
    "postal_code": "85395",
    "category": "walmart_store",
    "icon": "walmart_store.png",
    "lat": 33.4831,
    "lng": -112.4012,
    "verified": false,
    "country": "US",
    "stateOrProvince": "AZ",
    "city": "Goodyear"
  },
  {
    "id": "walmart_5369",
    "store_id": "5369",
    "name": "Walmart - Goodyear, AZ",
    "address": "1100 N Estrella Pkwy",
    "postal_code": "85338",
    "category": "walmart_store",
    "icon": "walmart_store.png",
    "lat": 33.3701,
    "lng": -112.4059,
    "verified": false,
    "country": "US",
    "stateOrProvince": "AZ",
    "city": "Goodyear"
  },
  {
    "id": "walmart_2051",
    "store_id": "2051",
    "name": "Walmart - Kingman, AZ",
    "address": "3396 Stockton Hill Rd, Kingman, AZ 86409",
    "postal_code": "86409",
    "category": "walmart_store",
    "icon": "walmart_store.png",
    "lat": 35.2874,
    "lng": -114.0853,
    "verified": false,
    "country": "US",
    "stateOrProvince": "AZ",
    "city": "Kingman"
  },
  {
    "id": "walmart_1364",
    "store_id": "1364",
    "name": "Walmart - Lake Havasu City, AZ",
    "address": "5695 Highway 95 N, Lake Havasu City, AZ 86404",
    "postal_code": "86404",
    "category": "walmart_store",
    "icon": "walmart_store.png",
    "lat": 34.6495,
    "lng": -114.1874,
    "verified": false,
    "country": "US",
    "stateOrProvince": "AZ",
    "city": "Lake Havasu City"
  },
  {
    "id": "walmart_5031",
    "store_id": "5031",
    "name": "Walmart - Tucson, AZ",
    "address": "8280 N Cortaro Rd, Tucson, AZ 85743",
    "postal_code": "85743",
    "category": "walmart_store",
    "icon": "walmart_store.png",
    "lat": 32.3003,
    "lng": -111.165,
    "verified": false,
    "country": "US",
    "stateOrProvince": "AZ",
    "city": "Tucson"
  },
  {
    "id": "walmart_4430",
    "store_id": "4430",
    "name": "Walmart - Maricopa, AZ",
    "address": "41650 W Maricopa Casa Grande Hwy, Maricopa, AZ 85138",
    "postal_code": "85138",
    "category": "walmart_store",
    "icon": "walmart_store.png",
    "lat": 33.0753,
    "lng": -112.033,
    "verified": false,
    "country": "US",
    "stateOrProvince": "AZ",
    "city": "Maricopa"
  },
  {
    "id": "walmart_3846",
    "store_id": "3846",
    "name": "Walmart - Mesa, AZ",
    "address": "2725 E Mckellips Rd",
    "postal_code": "85213",
    "category": "walmart_store",
    "icon": "walmart_store.png",
    "lat": 33.4498,
    "lng": -111.7677,
    "verified": false,
    "country": "US",
    "stateOrProvince": "AZ",
    "city": "Mesa"
  },
  {
    "id": "walmart_5257",
    "store_id": "5257",
    "name": "Walmart - Mesa, AZ",
    "address": "5122 E University Dr",
    "postal_code": "85205",
    "category": "walmart_store",
    "icon": "walmart_store.png",
    "lat": 33.4336,
    "lng": -111.7184,
    "verified": false,
    "country": "US",
    "stateOrProvince": "AZ",
    "city": "Mesa"
  },
  {
    "id": "walmart_5304",
    "store_id": "5304",
    "name": "Walmart - Mesa, AZ",
    "address": "1916 S Lindsay Rd",
    "postal_code": "85204",
    "category": "walmart_store",
    "icon": "walmart_store.png",
    "lat": 33.3973,
    "lng": -111.7858,
    "verified": false,
    "country": "US",
    "stateOrProvince": "AZ",
    "city": "Mesa"
  },
  {
    "id": "walmart_5332",
    "store_id": "5332",
    "name": "Walmart - Mesa, AZ",
    "address": "730 E Mckellips Rd",
    "postal_code": "85203",
    "category": "walmart_store",
    "icon": "walmart_store.png",
    "lat": 33.4567,
    "lng": -111.8123,
    "verified": false,
    "country": "US",
    "stateOrProvince": "AZ",
    "city": "Mesa"
  },
  {
    "id": "walmart_5349",
    "store_id": "5349",
    "name": "Walmart - Mesa, AZ",
    "address": "8335 E Guadalupe Rd",
    "postal_code": "85212",
    "category": "walmart_store",
    "icon": "walmart_store.png",
    "lat": 33.328,
    "lng": -111.6356,
    "verified": false,
    "country": "US",
    "stateOrProvince": "AZ",
    "city": "Mesa"
  },
  {
    "id": "walmart_1646",
    "store_id": "1646",
    "name": "Walmart - Mesa, AZ",
    "address": "6131 E Southern Ave",
    "postal_code": "85206",
    "category": "walmart_store",
    "icon": "walmart_store.png",
    "lat": 33.3974,
    "lng": -111.7192,
    "verified": false,
    "country": "US",
    "stateOrProvince": "AZ",
    "city": "Mesa"
  },
  {
    "id": "walmart_2482",
    "store_id": "2482",
    "name": "Walmart - Mesa, AZ",
    "address": "857 N Dobson Rd",
    "postal_code": "85201",
    "category": "walmart_store",
    "icon": "walmart_store.png",
    "lat": 33.4432,
    "lng": -111.8553,
    "verified": false,
    "country": "US",
    "stateOrProvince": "AZ",
    "city": "Mesa"
  },
  {
    "id": "walmart_2767",
    "store_id": "2767",
    "name": "Walmart - Mesa, AZ",
    "address": "4505 E Mckellips Rd",
    "postal_code": "85215",
    "category": "walmart_store",
    "icon": "walmart_store.png",
    "lat": 33.5317,
    "lng": -111.6458,
    "verified": false,
    "country": "US",
    "stateOrProvince": "AZ",
    "city": "Mesa"
  },
  {
    "id": "walmart_2768",
    "store_id": "2768",
    "name": "Walmart - Mesa, AZ",
    "address": "1955 S Stapley Dr",
    "postal_code": "85204",
    "category": "walmart_store",
    "icon": "walmart_store.png",
    "lat": 33.3973,
    "lng": -111.7858,
    "verified": false,
    "country": "US",
    "stateOrProvince": "AZ",
    "city": "Mesa"
  },
  {
    "id": "walmart_3799",
    "store_id": "3799",
    "name": "Walmart - Mesa, AZ",
    "address": "240 W Baseline Rd",
    "postal_code": "85210",
    "category": "walmart_store",
    "icon": "walmart_store.png",
    "lat": 33.3861,
    "lng": -111.8413,
    "verified": false,
    "country": "US",
    "stateOrProvince": "AZ",
    "city": "Mesa"
  },
  {
    "id": "walmart_3833",
    "store_id": "3833",
    "name": "Walmart - Mesa, AZ",
    "address": "1606 S Signal Butte Rd",
    "postal_code": "85209",
    "category": "walmart_store",
    "icon": "walmart_store.png",
    "lat": 33.3761,
    "lng": -111.6343,
    "verified": false,
    "country": "US",
    "stateOrProvince": "AZ",
    "city": "Mesa"
  },
  {
    "id": "walmart_5428",
    "store_id": "5428",
    "name": "Walmart - Mesa, AZ",
    "address": "1710 S Greenfield Rd",
    "postal_code": "85206",
    "category": "walmart_store",
    "icon": "walmart_store.png",
    "lat": 33.3974,
    "lng": -111.7192,
    "verified": false,
    "country": "US",
    "stateOrProvince": "AZ",
    "city": "Mesa"
  },
  {
    "id": "walmart_1324",
    "store_id": "1324",
    "name": "Walmart - Nogales, AZ",
    "address": "100 W White Park Dr, Nogales, AZ 85621",
    "postal_code": "85621",
    "category": "walmart_store",
    "icon": "walmart_store.png",
    "lat": 31.4643,
    "lng": -110.9944,
    "verified": false,
    "country": "US",
    "stateOrProvince": "AZ",
    "city": "Nogales"
  },
  {
    "id": "walmart_4264",
    "store_id": "4264",
    "name": "Walmart - Tucson, AZ",
    "address": "7951 N Oracle Rd",
    "postal_code": "85704",
    "category": "walmart_store",
    "icon": "walmart_store.png",
    "lat": 32.3407,
    "lng": -110.9811,
    "verified": false,
    "country": "US",
    "stateOrProvince": "AZ",
    "city": "Tucson"
  },
  {
    "id": "walmart_3379",
    "store_id": "3379",
    "name": "Walmart - Tucson, AZ",
    "address": "2150 E Tangerine Rd",
    "postal_code": "85755",
    "category": "walmart_store",
    "icon": "walmart_store.png",
    "lat": 32.4677,
    "lng": -110.9849,
    "verified": false,
    "country": "US",
    "stateOrProvince": "AZ",
    "city": "Tucson"
  },
  {
    "id": "walmart_1442",
    "store_id": "1442",
    "name": "Walmart - Page, AZ",
    "address": "1017 West Haul Road, Page, AZ 86040",
    "postal_code": "86040",
    "category": "walmart_store",
    "icon": "walmart_store.png",
    "lat": 36.8036,
    "lng": -111.2039,
    "verified": false,
    "country": "US",
    "stateOrProvince": "AZ",
    "city": "Page"
  },
  {
    "id": "walmart_4543",
    "store_id": "4543",
    "name": "Walmart - Parker, AZ",
    "address": "100 W Riverside Dr, Parker, AZ 85344",
    "postal_code": "85344",
    "category": "walmart_store",
    "icon": "walmart_store.png",
    "lat": 33.8409,
    "lng": -114.1309,
    "verified": false,
    "country": "US",
    "stateOrProvince": "AZ",
    "city": "Parker"
  },
  {
    "id": "walmart_1369",
    "store_id": "1369",
    "name": "Walmart - Payson, AZ",
    "address": "300 N Beeline Hwy, Payson, AZ 85541",
    "postal_code": "85541",
    "category": "walmart_store",
    "icon": "walmart_store.png",
    "lat": 34.0443,
    "lng": -111.2309,
    "verified": false,
    "country": "US",
    "stateOrProvince": "AZ",
    "city": "Payson"
  },
  {
    "id": "walmart_4275",
    "store_id": "4275",
    "name": "Walmart - Peoria, AZ",
    "address": "7421 West Thunderbird Road",
    "postal_code": "85381",
    "category": "walmart_store",
    "icon": "walmart_store.png",
    "lat": 33.6106,
    "lng": -112.2333,
    "verified": false,
    "country": "US",
    "stateOrProvince": "AZ",
    "city": "Peoria"
  },
  {
    "id": "walmart_1533",
    "store_id": "1533",
    "name": "Walmart - Peoria, AZ",
    "address": "7975 W Peoria Ave",
    "postal_code": "85345",
    "category": "walmart_store",
    "icon": "walmart_store.png",
    "lat": 33.5735,
    "lng": -112.2596,
    "verified": false,
    "country": "US",
    "stateOrProvince": "AZ",
    "city": "Peoria"
  },
  {
    "id": "walmart_3896",
    "store_id": "3896",
    "name": "Walmart - Peoria, AZ",
    "address": "21655 N Lake Pleasant Pkwy",
    "postal_code": "85382",
    "category": "walmart_store",
    "icon": "walmart_store.png",
    "lat": 33.6517,
    "lng": -112.2462,
    "verified": false,
    "country": "US",
    "stateOrProvince": "AZ",
    "city": "Peoria"
  },
  {
    "id": "walmart_2632",
    "store_id": "2632",
    "name": "Walmart - Phoenix, AZ",
    "address": "115 E Dunlap Ave",
    "postal_code": "85020",
    "category": "walmart_store",
    "icon": "walmart_store.png",
    "lat": 33.5711,
    "lng": -112.0514,
    "verified": false,
    "country": "US",
    "stateOrProvince": "AZ",
    "city": "Phoenix"
  },
  {
    "id": "walmart_4233",
    "store_id": "4233",
    "name": "Walmart - Glendale, AZ",
    "address": "6550 West Happy Valley Rd",
    "postal_code": "85310",
    "category": "walmart_store",
    "icon": "walmart_store.png",
    "lat": 33.7045,
    "lng": -112.1778,
    "verified": false,
    "country": "US",
    "stateOrProvince": "AZ",
    "city": "Glendale"
  },
  {
    "id": "walmart_4293",
    "store_id": "4293",
    "name": "Walmart - Phoenix, AZ",
    "address": "2435 E Baseline Rd",
    "postal_code": "85042",
    "category": "walmart_store",
    "icon": "walmart_store.png",
    "lat": 33.37,
    "lng": -112.0353,
    "verified": false,
    "country": "US",
    "stateOrProvince": "AZ",
    "city": "Phoenix"
  },
  {
    "id": "walmart_1549",
    "store_id": "1549",
    "name": "Walmart - Phoenix, AZ",
    "address": "2020 N 75th Ave",
    "postal_code": "85035",
    "category": "walmart_store",
    "icon": "walmart_store.png",
    "lat": 33.4729,
    "lng": -112.1948,
    "verified": false,
    "country": "US",
    "stateOrProvince": "AZ",
    "city": "Phoenix"
  },
  {
    "id": "walmart_1598",
    "store_id": "1598",
    "name": "Walmart - Phoenix, AZ",
    "address": "4617 E Bell Rd",
    "postal_code": "85032",
    "category": "walmart_store",
    "icon": "walmart_store.png",
    "lat": 33.6254,
    "lng": -112.0059,
    "verified": false,
    "country": "US",
    "stateOrProvince": "AZ",
    "city": "Phoenix"
  },
  {
    "id": "walmart_2113",
    "store_id": "2113",
    "name": "Walmart - Phoenix, AZ",
    "address": "1607 W Bethany Home Rd",
    "postal_code": "85015",
    "category": "walmart_store",
    "icon": "walmart_store.png",
    "lat": 33.5096,
    "lng": -112.1022,
    "verified": false,
    "country": "US",
    "stateOrProvince": "AZ",
    "city": "Phoenix"
  },
  {
    "id": "walmart_2512",
    "store_id": "2512",
    "name": "Walmart - Phoenix, AZ",
    "address": "1825 W Bell Rd",
    "postal_code": "85023",
    "category": "walmart_store",
    "icon": "walmart_store.png",
    "lat": 33.6312,
    "lng": -112.0932,
    "verified": false,
    "country": "US",
    "stateOrProvince": "AZ",
    "city": "Phoenix"
  },
  {
    "id": "walmart_2515",
    "store_id": "2515",
    "name": "Walmart - Phoenix, AZ",
    "address": "3721 E Thomas Rd",
    "postal_code": "85018",
    "category": "walmart_store",
    "icon": "walmart_store.png",
    "lat": 33.5024,
    "lng": -111.9782,
    "verified": false,
    "country": "US",
    "stateOrProvince": "AZ",
    "city": "Phoenix"
  },
  {
    "id": "walmart_3771",
    "store_id": "3771",
    "name": "Walmart - Phoenix, AZ",
    "address": "6150 S 35th Ave",
    "postal_code": "85041",
    "category": "walmart_store",
    "icon": "walmart_store.png",
    "lat": 33.3833,
    "lng": -112.1121,
    "verified": false,
    "country": "US",
    "stateOrProvince": "AZ",
    "city": "Phoenix"
  },
  {
    "id": "walmart_4232",
    "store_id": "4232",
    "name": "Walmart - Phoenix, AZ",
    "address": "4747 E Cactus Rd",
    "postal_code": "85032",
    "category": "walmart_store",
    "icon": "walmart_store.png",
    "lat": 33.6254,
    "lng": -112.0059,
    "verified": false,
    "country": "US",
    "stateOrProvince": "AZ",
    "city": "Phoenix"
  },
  {
    "id": "walmart_5189",
    "store_id": "5189",
    "name": "Walmart - Phoenix, AZ",
    "address": "5250 W Indian School Rd",
    "postal_code": "85031",
    "category": "walmart_store",
    "icon": "walmart_store.png",
    "lat": 33.4951,
    "lng": -112.169,
    "verified": false,
    "country": "US",
    "stateOrProvince": "AZ",
    "city": "Phoenix"
  },
  {
    "id": "walmart_5190",
    "store_id": "5190",
    "name": "Walmart - Phoenix, AZ",
    "address": "2501 W Happy Valley Rd Ste 34",
    "postal_code": "85085",
    "category": "walmart_store",
    "icon": "walmart_store.png",
    "lat": 33.7498,
    "lng": -112.114,
    "verified": false,
    "country": "US",
    "stateOrProvince": "AZ",
    "city": "Phoenix"
  },
  {
    "id": "walmart_5330",
    "store_id": "5330",
    "name": "Walmart - Phoenix, AZ",
    "address": "6145 N 35th Ave",
    "postal_code": "85017",
    "category": "walmart_store",
    "icon": "walmart_store.png",
    "lat": 33.5091,
    "lng": -112.1247,
    "verified": false,
    "country": "US",
    "stateOrProvince": "AZ",
    "city": "Phoenix"
  },
  {
    "id": "walmart_5331",
    "store_id": "5331",
    "name": "Walmart - Phoenix, AZ",
    "address": "7575 W Lower Buckeye Rd",
    "postal_code": "85043",
    "category": "walmart_store",
    "icon": "walmart_store.png",
    "lat": 33.4281,
    "lng": -112.1862,
    "verified": false,
    "country": "US",
    "stateOrProvince": "AZ",
    "city": "Phoenix"
  },
  {
    "id": "walmart_6477",
    "store_id": "6477",
    "name": "Walmart - Phoenix, AZ",
    "address": "9600 N Metro Pkwy W",
    "postal_code": "85051",
    "category": "walmart_store",
    "icon": "walmart_store.png",
    "lat": 33.5602,
    "lng": -112.132,
    "verified": false,
    "country": "US",
    "stateOrProvince": "AZ",
    "city": "Phoenix"
  },
  {
    "id": "walmart_1417",
    "store_id": "1417",
    "name": "Walmart - Prescott, AZ",
    "address": "3050 E State Route 69",
    "postal_code": "86301",
    "category": "walmart_store",
    "icon": "walmart_store.png",
    "lat": 34.6193,
    "lng": -112.4194,
    "verified": false,
    "country": "US",
    "stateOrProvince": "AZ",
    "city": "Prescott"
  },
  {
    "id": "walmart_5303",
    "store_id": "5303",
    "name": "Walmart - Prescott, AZ",
    "address": "1280 Gail Gardner Way",
    "postal_code": "86305",
    "category": "walmart_store",
    "icon": "walmart_store.png",
    "lat": 34.7106,
    "lng": -112.8809,
    "verified": false,
    "country": "US",
    "stateOrProvince": "AZ",
    "city": "Prescott"
  },
  {
    "id": "walmart_3730",
    "store_id": "3730",
    "name": "Walmart - Prescott Valley, AZ",
    "address": "3450 N Glassford Hill Rd, Prescott Valley, AZ 86314",
    "postal_code": "86314",
    "category": "walmart_store",
    "icon": "walmart_store.png",
    "lat": 34.656,
    "lng": -112.3047,
    "verified": false,
    "country": "US",
    "stateOrProvince": "AZ",
    "city": "Prescott Valley"
  },
  {
    "id": "walmart_4451",
    "store_id": "4451",
    "name": "Walmart - Queen Creek, AZ",
    "address": "21055 E Rittenhouse Rd, Queen Creek, AZ 85142",
    "postal_code": "85142",
    "category": "walmart_store",
    "icon": "walmart_store.png",
    "lat": 33.1915,
    "lng": -111.6213,
    "verified": false,
    "country": "US",
    "stateOrProvince": "AZ",
    "city": "Queen Creek"
  },
  {
    "id": "walmart_1149",
    "store_id": "1149",
    "name": "Walmart - Safford, AZ",
    "address": "755 S 20th Ave, Safford, AZ 85546",
    "postal_code": "85546",
    "category": "walmart_store",
    "icon": "walmart_store.png",
    "lat": 32.7515,
    "lng": -109.4466,
    "verified": false,
    "country": "US",
    "stateOrProvince": "AZ",
    "city": "Safford"
  },
  {
    "id": "walmart_1411",
    "store_id": "1411",
    "name": "Walmart - Sahuarita, AZ",
    "address": "18680 S Nogales Hwy, Sahuarita, AZ 85614",
    "postal_code": "85614",
    "category": "walmart_store",
    "icon": "walmart_store.png",
    "lat": 31.8335,
    "lng": -111.0026,
    "verified": false,
    "country": "US",
    "stateOrProvince": "AZ",
    "city": "Sahuarita"
  },
  {
    "id": "walmart_4337",
    "store_id": "4337",
    "name": "Walmart - San Luis, AZ",
    "address": "1613 N Main St, San Luis, AZ 85349",
    "postal_code": "85349",
    "category": "walmart_store",
    "icon": "walmart_store.png",
    "lat": 32.4943,
    "lng": -114.7833,
    "verified": false,
    "country": "US",
    "stateOrProvince": "AZ",
    "city": "San Luis"
  },
  {
    "id": "walmart_3751",
    "store_id": "3751",
    "name": "Walmart - San Tan Valley, AZ",
    "address": "1725 W Hunt Hwy, San Tan Valley, AZ 85143",
    "postal_code": "85143",
    "category": "walmart_store",
    "icon": "walmart_store.png",
    "lat": 33.1288,
    "lng": -111.6053,
    "verified": false,
    "country": "US",
    "stateOrProvince": "AZ",
    "city": "San Tan Valley"
  },
  {
    "id": "walmart_2112",
    "store_id": "2112",
    "name": "Walmart - Scottsdale, AZ",
    "address": "4915 N Pima Rd",
    "postal_code": "85251",
    "category": "walmart_store",
    "icon": "walmart_store.png",
    "lat": 33.4941,
    "lng": -111.9229,
    "verified": false,
    "country": "US",
    "stateOrProvince": "AZ",
    "city": "Scottsdale"
  },
  {
    "id": "walmart_2766",
    "store_id": "2766",
    "name": "Walmart - Scottsdale, AZ",
    "address": "15355 N Northsight Blvd",
    "postal_code": "85260",
    "category": "walmart_store",
    "icon": "walmart_store.png",
    "lat": 33.611,
    "lng": -111.8901,
    "verified": false,
    "country": "US",
    "stateOrProvince": "AZ",
    "city": "Scottsdale"
  },
  {
    "id": "walmart_1230",
    "store_id": "1230",
    "name": "Walmart - Show Low, AZ",
    "address": "5401 S White Mountain Rd, Show Low, AZ 85901",
    "postal_code": "85901",
    "category": "walmart_store",
    "icon": "walmart_store.png",
    "lat": 34.0887,
    "lng": -110.1229,
    "verified": false,
    "country": "US",
    "stateOrProvince": "AZ",
    "city": "Show Low"
  },
  {
    "id": "walmart_1240",
    "store_id": "1240",
    "name": "Walmart - Sierra Vista, AZ",
    "address": "500 N Highway 90 Byp, Sierra Vista, AZ 85635",
    "postal_code": "85635",
    "category": "walmart_store",
    "icon": "walmart_store.png",
    "lat": 31.5861,
    "lng": -110.1729,
    "verified": false,
    "country": "US",
    "stateOrProvince": "AZ",
    "city": "Sierra Vista"
  },
  {
    "id": "walmart_4218",
    "store_id": "4218",
    "name": "Walmart - Surprise, AZ",
    "address": "15431 W Greenway Rd",
    "postal_code": "85374",
    "category": "walmart_store",
    "icon": "walmart_store.png",
    "lat": 33.6513,
    "lng": -112.3764,
    "verified": false,
    "country": "US",
    "stateOrProvince": "AZ",
    "city": "Surprise"
  },
  {
    "id": "walmart_2777",
    "store_id": "2777",
    "name": "Walmart - Surprise, AZ",
    "address": "13770 W Bell Rd",
    "postal_code": "85374",
    "category": "walmart_store",
    "icon": "walmart_store.png",
    "lat": 33.6513,
    "lng": -112.3764,
    "verified": false,
    "country": "US",
    "stateOrProvince": "AZ",
    "city": "Surprise"
  },
  {
    "id": "walmart_5429",
    "store_id": "5429",
    "name": "Walmart - Surprise, AZ",
    "address": "14111 N Prasada Gateway Ave",
    "postal_code": "85388",
    "category": "walmart_store",
    "icon": "walmart_store.png",
    "lat": 33.6097,
    "lng": -112.4397,
    "verified": false,
    "country": "US",
    "stateOrProvince": "AZ",
    "city": "Surprise"
  },
  {
    "id": "walmart_4355",
    "store_id": "4355",
    "name": "Walmart - Taylor, AZ",
    "address": "715 N Main St, Taylor, AZ 85939",
    "postal_code": "85939",
    "category": "walmart_store",
    "icon": "walmart_store.png",
    "lat": 34.4253,
    "lng": -110.0707,
    "verified": false,
    "country": "US",
    "stateOrProvince": "AZ",
    "city": "Taylor"
  },
  {
    "id": "walmart_1746",
    "store_id": "1746",
    "name": "Walmart - Tempe, AZ",
    "address": "1380 W Elliot Rd",
    "postal_code": "85284",
    "category": "walmart_store",
    "icon": "walmart_store.png",
    "lat": 33.3347,
    "lng": -111.9325,
    "verified": false,
    "country": "US",
    "stateOrProvince": "AZ",
    "city": "Tempe"
  },
  {
    "id": "walmart_5768",
    "store_id": "5768",
    "name": "Walmart - Tempe, AZ",
    "address": "800 E Southern Ave",
    "postal_code": "85282",
    "category": "walmart_store",
    "icon": "walmart_store.png",
    "lat": 33.3939,
    "lng": -111.9291,
    "verified": false,
    "country": "US",
    "stateOrProvince": "AZ",
    "city": "Tempe"
  },
  {
    "id": "walmart_3049",
    "store_id": "3049",
    "name": "Walmart - Tucson, AZ",
    "address": "2550 S. Kolb Rd",
    "postal_code": "85710",
    "category": "walmart_store",
    "icon": "walmart_store.png",
    "lat": 32.2138,
    "lng": -110.8238,
    "verified": false,
    "country": "US",
    "stateOrProvince": "AZ",
    "city": "Tucson"
  },
  {
    "id": "walmart_3143",
    "store_id": "3143",
    "name": "Walmart - Tucson, AZ",
    "address": "8640 E Broadway Blvd",
    "postal_code": "85710",
    "category": "walmart_store",
    "icon": "walmart_store.png",
    "lat": 32.2138,
    "lng": -110.8238,
    "verified": false,
    "country": "US",
    "stateOrProvince": "AZ",
    "city": "Tucson"
  },
  {
    "id": "walmart_3357",
    "store_id": "3357",
    "name": "Walmart - Tucson, AZ",
    "address": "3925 E Grant Rd",
    "postal_code": "85712",
    "category": "walmart_store",
    "icon": "walmart_store.png",
    "lat": 32.2548,
    "lng": -110.8836,
    "verified": false,
    "country": "US",
    "stateOrProvince": "AZ",
    "city": "Tucson"
  },
  {
    "id": "walmart_3377",
    "store_id": "3377",
    "name": "Walmart - Tucson, AZ",
    "address": "2823 W Valencia Rd",
    "postal_code": "85746",
    "category": "walmart_store",
    "icon": "walmart_store.png",
    "lat": 32.0898,
    "lng": -111.0862,
    "verified": false,
    "country": "US",
    "stateOrProvince": "AZ",
    "city": "Tucson"
  },
  {
    "id": "walmart_4473",
    "store_id": "4473",
    "name": "Walmart - Tucson, AZ",
    "address": "2175 W Ruthrauff Rd",
    "postal_code": "85705",
    "category": "walmart_store",
    "icon": "walmart_store.png",
    "lat": 32.2694,
    "lng": -111.004,
    "verified": false,
    "country": "US",
    "stateOrProvince": "AZ",
    "city": "Tucson"
  },
  {
    "id": "walmart_4490",
    "store_id": "4490",
    "name": "Walmart - Tucson, AZ",
    "address": "2565 E. Commerce Center Place",
    "postal_code": "85706",
    "category": "walmart_store",
    "icon": "walmart_store.png",
    "lat": 32.077,
    "lng": -110.8988,
    "verified": false,
    "country": "US",
    "stateOrProvince": "AZ",
    "city": "Tucson"
  },
  {
    "id": "walmart_4603",
    "store_id": "4603",
    "name": "Walmart - Tucson, AZ",
    "address": "5500 E 22nd St",
    "postal_code": "85711",
    "category": "walmart_store",
    "icon": "walmart_store.png",
    "lat": 32.2142,
    "lng": -110.8838,
    "verified": false,
    "country": "US",
    "stateOrProvince": "AZ",
    "city": "Tucson"
  },
  {
    "id": "walmart_5725",
    "store_id": "5725",
    "name": "Walmart - Tucson, AZ",
    "address": "831 E Fort Lowell Road",
    "postal_code": "85719",
    "category": "walmart_store",
    "icon": "walmart_store.png",
    "lat": 32.248,
    "lng": -110.9474,
    "verified": false,
    "country": "US",
    "stateOrProvince": "AZ",
    "city": "Tucson"
  },
  {
    "id": "walmart_1325",
    "store_id": "1325",
    "name": "Walmart - Tucson, AZ",
    "address": "455 E Wetmore Rd",
    "postal_code": "85705",
    "category": "walmart_store",
    "icon": "walmart_store.png",
    "lat": 32.2694,
    "lng": -111.004,
    "verified": false,
    "country": "US",
    "stateOrProvince": "AZ",
    "city": "Tucson"
  },
  {
    "id": "walmart_1291",
    "store_id": "1291",
    "name": "Walmart - Tucson, AZ",
    "address": "7150 E Speedway Blvd",
    "postal_code": "85710",
    "category": "walmart_store",
    "icon": "walmart_store.png",
    "lat": 32.2138,
    "lng": -110.8238,
    "verified": false,
    "country": "US",
    "stateOrProvince": "AZ",
    "city": "Tucson"
  },
  {
    "id": "walmart_1612",
    "store_id": "1612",
    "name": "Walmart - Tucson, AZ",
    "address": "1650 W Valencia Rd",
    "postal_code": "85746",
    "category": "walmart_store",
    "icon": "walmart_store.png",
    "lat": 32.0898,
    "lng": -111.0862,
    "verified": false,
    "country": "US",
    "stateOrProvince": "AZ",
    "city": "Tucson"
  },
  {
    "id": "walmart_2922",
    "store_id": "2922",
    "name": "Walmart - Tucson, AZ",
    "address": "7635 No. La Cholla B",
    "postal_code": "85741",
    "category": "walmart_store",
    "icon": "walmart_store.png",
    "lat": 32.3314,
    "lng": -111.0505,
    "verified": false,
    "country": "US",
    "stateOrProvince": "AZ",
    "city": "Tucson"
  },
  {
    "id": "walmart_3884",
    "store_id": "3884",
    "name": "Walmart - Tucson, AZ",
    "address": "3435 East Broadway Blvd",
    "postal_code": "85716",
    "category": "walmart_store",
    "icon": "walmart_store.png",
    "lat": 32.2449,
    "lng": -110.9234,
    "verified": false,
    "country": "US",
    "stateOrProvince": "AZ",
    "city": "Tucson"
  },
  {
    "id": "walmart_5626",
    "store_id": "5626",
    "name": "Walmart - Tucson, AZ",
    "address": "1260 East Tucson Marketplace Blvd",
    "postal_code": "85713",
    "category": "walmart_store",
    "icon": "walmart_store.png",
    "lat": 32.1961,
    "lng": -111.005,
    "verified": false,
    "country": "US",
    "stateOrProvince": "AZ",
    "city": "Tucson"
  },
  {
    "id": "walmart_5799",
    "store_id": "5799",
    "name": "Walmart - Tucson, AZ",
    "address": "2711 S. Houghton Rd",
    "postal_code": "85730",
    "category": "walmart_store",
    "icon": "walmart_store.png",
    "lat": 32.1756,
    "lng": -110.7967,
    "verified": false,
    "country": "US",
    "stateOrProvince": "AZ",
    "city": "Tucson"
  },
  {
    "id": "walmart_5858",
    "store_id": "5858",
    "name": "Walmart - Tucson, AZ",
    "address": "9260 S. Houghton Rd",
    "postal_code": "85747",
    "category": "walmart_store",
    "icon": "walmart_store.png",
    "lat": 32.0985,
    "lng": -110.7308,
    "verified": false,
    "country": "US",
    "stateOrProvince": "AZ",
    "city": "Tucson"
  },
  {
    "id": "walmart_1328",
    "store_id": "1328",
    "name": "Walmart - Winslow, AZ",
    "address": "700 Mikes Pike St, Winslow, AZ 86047",
    "postal_code": "86047",
    "category": "walmart_store",
    "icon": "walmart_store.png",
    "lat": 35.1151,
    "lng": -110.2903,
    "verified": false,
    "country": "US",
    "stateOrProvince": "AZ",
    "city": "Winslow"
  },
  {
    "id": "walmart_7320",
    "store_id": "7320",
    "name": "Walmart - Yuma, AZ",
    "address": "2675 W. 8th Street",
    "postal_code": "85364",
    "category": "walmart_store",
    "icon": "walmart_store.png",
    "lat": 32.7074,
    "lng": -114.6801,
    "verified": false,
    "country": "US",
    "stateOrProvince": "AZ",
    "city": "Yuma"
  },
  {
    "id": "walmart_1474",
    "store_id": "1474",
    "name": "Walmart - Yuma, AZ",
    "address": "2900 S Pacific Ave",
    "postal_code": "85365",
    "category": "walmart_store",
    "icon": "walmart_store.png",
    "lat": 32.7233,
    "lng": -114.5379,
    "verified": false,
    "country": "US",
    "stateOrProvince": "AZ",
    "city": "Yuma"
  },
  {
    "id": "walmart_4325",
    "store_id": "4325",
    "name": "Walmart - Yuma, AZ",
    "address": "8151 E 32nd St",
    "postal_code": "85365",
    "category": "walmart_store",
    "icon": "walmart_store.png",
    "lat": 32.7233,
    "lng": -114.5379,
    "verified": false,
    "country": "US",
    "stateOrProvince": "AZ",
    "city": "Yuma"
  },
  {
    "id": "walmart_5342",
    "store_id": "5342",
    "name": "Walmart - Yuma, AZ",
    "address": "2501 S Avenue B",
    "postal_code": "85364",
    "category": "walmart_store",
    "icon": "walmart_store.png",
    "lat": 32.7074,
    "lng": -114.6801,
    "verified": false,
    "country": "US",
    "stateOrProvince": "AZ",
    "city": "Yuma"
  },
  {
    "id": "walmart_358",
    "store_id": "358",
    "name": "Walmart - Alma, AR",
    "address": "367 W Cherry St, Alma, AR 72921",
    "postal_code": "72921",
    "category": "walmart_store",
    "icon": "walmart_store.png",
    "lat": 35.4637,
    "lng": -94.1939,
    "verified": false,
    "country": "US",
    "stateOrProvince": "AR",
    "city": "Alma"
  },
  {
    "id": "walmart_318",
    "store_id": "318",
    "name": "Walmart - Arkadelphia, AR",
    "address": "109 Wp Malone Dr, Arkadelphia, AR 71923",
    "postal_code": "71923",
    "category": "walmart_store",
    "icon": "walmart_store.png",
    "lat": 34.0495,
    "lng": -93.0817,
    "verified": false,
    "country": "US",
    "stateOrProvince": "AR",
    "city": "Arkadelphia"
  },
  {
    "id": "walmart_160",
    "store_id": "160",
    "name": "Walmart - Ash Flat, AR",
    "address": "219 Highway 412, Ash Flat, AR 72513",
    "postal_code": "72513",
    "category": "walmart_store",
    "icon": "walmart_store.png",
    "lat": 36.198,
    "lng": -91.6309,
    "verified": false,
    "country": "US",
    "stateOrProvince": "AR",
    "city": "Ash Flat"
  },
  {
    "id": "walmart_133",
    "store_id": "133",
    "name": "Walmart - Ashdown, AR",
    "address": "297 Hwy 32 By-pass E, Ashdown, AR 71822",
    "postal_code": "71822",
    "category": "walmart_store",
    "icon": "walmart_store.png",
    "lat": 33.6895,
    "lng": -94.1297,
    "verified": false,
    "country": "US",
    "stateOrProvince": "AR",
    "city": "Ashdown"
  },
  {
    "id": "walmart_119",
    "store_id": "119",
    "name": "Walmart - Batesville, AR",
    "address": "3150 Harrison St, Batesville, AR 72501",
    "postal_code": "72501",
    "category": "walmart_store",
    "icon": "walmart_store.png",
    "lat": 35.7926,
    "lng": -91.6656,
    "verified": false,
    "country": "US",
    "stateOrProvince": "AR",
    "city": "Batesville"
  },
  {
    "id": "walmart_4168",
    "store_id": "4168",
    "name": "Walmart - Beebe, AR",
    "address": "2003 W Center St, Beebe, AR 72012",
    "postal_code": "72012",
    "category": "walmart_store",
    "icon": "walmart_store.png",
    "lat": 35.1146,
    "lng": -91.9067,
    "verified": false,
    "country": "US",
    "stateOrProvince": "AR",
    "city": "Beebe"
  },
  {
    "id": "walmart_85",
    "store_id": "85",
    "name": "Walmart - Benton, AR",
    "address": "17309 Interstate 30 S, Benton, AR 72015",
    "postal_code": "72015",
    "category": "walmart_store",
    "icon": "walmart_store.png",
    "lat": 34.5345,
    "lng": -92.6219,
    "verified": false,
    "country": "US",
    "stateOrProvince": "AR",
    "city": "Benton"
  },
  {
    "id": "walmart_2203",
    "store_id": "2203",
    "name": "Walmart - Bentonville, AR",
    "address": "702 Sw 8th St Pharmacy",
    "postal_code": "72712",
    "category": "walmart_store",
    "icon": "walmart_store.png",
    "lat": 36.3431,
    "lng": -94.2472,
    "verified": false,
    "country": "US",
    "stateOrProvince": "AR",
    "city": "Bentonville"
  },
  {
    "id": "walmart_7368",
    "store_id": "7368",
    "name": "Walmart - Bentonville, AR",
    "address": "1300 S Walton Blvd",
    "postal_code": "72712",
    "category": "walmart_store",
    "icon": "walmart_store.png",
    "lat": 36.3431,
    "lng": -94.2472,
    "verified": false,
    "country": "US",
    "stateOrProvince": "AR",
    "city": "Bentonville"
  },
  {
    "id": "walmart_2685",
    "store_id": "2685",
    "name": "Walmart - Bentonville, AR",
    "address": "3701 Se Dodson Rd",
    "postal_code": "72712",
    "category": "walmart_store",
    "icon": "walmart_store.png",
    "lat": 36.3431,
    "lng": -94.2472,
    "verified": false,
    "country": "US",
    "stateOrProvince": "AR",
    "city": "Bentonville"
  },
  {
    "id": "walmart_2686",
    "store_id": "2686",
    "name": "Walmart - Bentonville, AR",
    "address": "1703 E. Central Ave",
    "postal_code": "72712",
    "category": "walmart_store",
    "icon": "walmart_store.png",
    "lat": 36.3431,
    "lng": -94.2472,
    "verified": false,
    "country": "US",
    "stateOrProvince": "AR",
    "city": "Bentonville"
  },
  {
    "id": "walmart_2741",
    "store_id": "2741",
    "name": "Walmart - Bentonville, AR",
    "address": "3510 Se 14th St",
    "postal_code": "72712",
    "category": "walmart_store",
    "icon": "walmart_store.png",
    "lat": 36.3431,
    "lng": -94.2472,
    "verified": false,
    "country": "US",
    "stateOrProvince": "AR",
    "city": "Bentonville"
  },
  {
    "id": "walmart_3164",
    "store_id": "3164",
    "name": "Walmart - Bentonville, AR",
    "address": "205 N. Main Street",
    "postal_code": "72712",
    "category": "walmart_store",
    "icon": "walmart_store.png",
    "lat": 36.3431,
    "lng": -94.2472,
    "verified": false,
    "country": "US",
    "stateOrProvince": "AR",
    "city": "Bentonville"
  },
  {
    "id": "walmart_4376",
    "store_id": "4376",
    "name": "Walmart - Bentonville, AR",
    "address": "1400 N Walton Blvd",
    "postal_code": "72712",
    "category": "walmart_store",
    "icon": "walmart_store.png",
    "lat": 36.3431,
    "lng": -94.2472,
    "verified": false,
    "country": "US",
    "stateOrProvince": "AR",
    "city": "Bentonville"
  },
  {
    "id": "walmart_4686",
    "store_id": "4686",
    "name": "Walmart - Bentonville, AR",
    "address": "906 Sw Regional Airport Blvd",
    "postal_code": "72712",
    "category": "walmart_store",
    "icon": "walmart_store.png",
    "lat": 36.3431,
    "lng": -94.2472,
    "verified": false,
    "country": "US",
    "stateOrProvince": "AR",
    "city": "Bentonville"
  },